ride_id,rideable_type,started_at,ended_at,start_station_name,start_station_id,end_station_name,end_station_id,start_lat,start_lng,end_lat,end_lng,member_casual,hour,start-local-coords,end-local-coords,start-local-x,start-local-y,end-local-x,end-local-y
64C29B1E04A4FD56,classic_bike,2023-04-20T17:29:08,2023-04-20T17:46:22,Franklin St & Monroe St,TA1309000007,Sedgwick St & North Ave,TA1307000038,41.880317,-87.635185,41.911386,-87.638677,member,17,[357949.09142322326 579045.1939445734],[357631.30016512854 582493.6566521506],357949.09142322326,579045.1939445734,357631.30016512854,582493.6566521506
29120BEF1D4C9287,electric_bike,2023-04-07T10:38:35,2023-04-07T10:47:20,Clinton St & Madison St,TA1305000032,Field Blvd & South Water St,15534,41.8826615,-87.6410015,41.88634906269,-87.6175165471,member,10,[357464.19543452584 579301.6843672611],[359410.0632966077 579727.2515078001],357464.19543452584,579301.6843672611,359410.0632966077,579727.2515078001
6B62877C2640CA11,electric_bike,2023-04-19T11:36:22,2023-04-19T12:04:53,,,Normal Ave & Archer Ave,TA1308000014,41.93,-87.65,41.849527,-87.640591,casual,11,[356675.422234935 584553.5642423917],[357527.9652802311 575621.7498307637],356675.422234935,584553.5642423917,357527.9652802311,575621.7498307637
17D9A8C5BF926424,electric_bike,2023-04-13T10:39:14,2023-04-13T10:46:42,Larrabee St & Kingsbury St,TA1306000009,Mies van der Rohe Way & Chicago Ave,13338,41.897817492,-87.642957568,41.896944626370825,-87.62175768613815,member,10,[357288.295058949 580983.7413277276],[359048.3032312365 580901.166280386],357288.295058949,580983.7413277276,359048.3032312365,580901.166280386
AEB0F2AD7F590D79,electric_bike,2023-04-10T14:00:29,2023-04-10T14:05:20,,,Lincoln Ave & Diversey Pkwy,TA1307000064,41.93,-87.64,41.932225,-87.658617,member,14,[357504.8230380886 584560.2228363999],[355958.78290961613 584795.0349015957],357504.8230380886,584560.2228363999,355958.78290961613,584795.0349015957
FFC0A24EA0C00E0F,classic_bike,2023-04-22T01:01:02,2023-04-22T01:06:17,Michigan Ave & Washington St,13001,Michigan Ave & 8th St,623,41.8839840647265,-87.6246839761734,41.872773,-87.623981,member,1,[358817.35984054796 579459.6356373761],[358885.9983482724 578214.9149483864],358817.35984054796,579459.6356373761,358885.9983482724,578214.9149483864
4B6C404774206C4A,electric_bike,2023-04-27T19:06:23,2023-04-27T19:06:57,LaSalle St & Washington St,13006,LaSalle St & Washington St,13006,41.882658958,-87.632269502,41.882664,-87.63253,member,19,[358188.96579086146 579307.2859049768],[358167.33951629844 579307.6693171456],358188.96579086146,579307.2859049768,358167.33951629844,579307.6693171456
22E76F0D6D57CAD5,electric_bike,2023-04-03T08:22:08,2023-04-03T08:30:15,Columbus Dr & Randolph St,13263,Franklin St & Monroe St,TA1309000007,41.884446383,-87.61937201,41.880317,-87.635185,member,8,[359257.8243110272 579514.6393972893],[357949.09142322326 579045.1939445734],359257.8243110272,579514.6393972893,357949.09142322326,579045.1939445734
46D25C32E56ABD40,classic_bike,2023-04-12T17:33:13,2023-04-12T17:52:24,Lincoln Ave & Belmont Ave (Temp),TA1309000042,DuSable Lake Shore Dr & Diversey Pkwy,TA1309000039,41.93953161982257,-87.6711143553257,41.932588,-87.636427,casual,17,[354916.01897267177 585598.5003068884],[357798.8314876214 584850.0747469795],354916.01897267177,585598.5003068884,357798.8314876214,584850.0747469795
71B45748B9592EBC,classic_bike,2023-04-04T20:08:54,2023-04-04T20:17:18,Halsted St & 35th St,TA1308000043,State St & 33rd St,13216,41.830661,-87.647172,41.834734,-87.625813,member,20,[356998.1910059363 573521.9475841058],[358768.7288213487 573988.7207601244],356998.1910059363,573521.9475841058,358768.7288213487,573988.7207601244
A73702BFF07F5B55,electric_bike,2023-04-28T19:20:13,2023-04-28T19:26:38,,,,,41.93,-87.63,41.94,-87.64,casual,19,[358334.2240320999 584566.9781765558],[357495.84045717394 585670.9241331028],358334.2240320999,584566.9781765558,357495.84045717394,585670.9241331028
36C4CF53B798118B,classic_bike,2023-04-12T12:42:36,2023-04-12T12:48:50,St. Clair St & Erie St,13016,State St & Chicago Ave,21544,41.89434513742426,-87.62279838323593,41.89661720040753,-87.62857854366302,member,12,[358964.33423406497 580611.7268012591],[358482.58721691323 580860.1272561179],358964.33423406497,580611.7268012591,358482.58721691323,580860.1272561179
72CADB658D1B8C8E,classic_bike,2023-04-27T09:37:38,2023-04-27T09:38:27,Ashland Ave & Blackhawk St,13224,Ashland Ave & Blackhawk St,13224,41.907066,-87.667252,41.907066,-87.667252,casual,9,[355264.3248609054 581995.0307033292],[355264.3248609054 581995.0307033292],355264.3248609054,581995.0307033292,355264.3248609054,581995.0307033292
90BB4DD27D99E4D3,classic_bike,2023-04-07T14:51:23,2023-04-07T14:59:44,University Ave & 57th St,KA1503000071,Lake Park Ave & 53rd St,KA1503000059,41.791478,-87.599861,41.79949429373,-87.5864498959,member,14,[360965.3980530323 569202.4485881036],[362072.3854218557 570102.3965777946],360965.3980530323,569202.4485881036,362072.3854218557,570102.3965777946
169FB08D03FA5C20,electric_bike,2023-04-02T11:07:08,2023-04-02T11:17:24,,,Sedgwick St & Huron St,TA1307000062,41.9,-87.63,41.894666,-87.638437,member,11,[358361.54977161903 581234.8849875635],[357666.2548748835 580636.7355334136],358361.54977161903,581234.8849875635,357666.2548748835,580636.7355334136
D4E57C9DF985836B,electric_bike,2023-04-12T20:49:05,2023-04-12T20:56:36,,,Halsted St & Wrightwood Ave,TA1309000061,41.92,-87.66,41.929143,-87.649077,member,20,[355854.74334961415 583436.3035148716],[356752.73556818004 584458.9877855224],355854.74334961415,583436.3035148716,356752.73556818004,584458.9877855224
78D08748B2AF44AF,electric_bike,2023-04-26T20:02:33,2023-04-26T20:04:46,,,,,41.99,-87.7,41.99,-87.69,member,20,[352479.16588062013 591185.9502055822],[353307.7879827847 591192.1264743028],352479.16588062013,591185.9502055822,353307.7879827847,591192.1264743028
383144A168CE7099,classic_bike,2023-04-09T16:42:51,2023-04-09T16:42:56,Racine Ave & Fullerton Ave,TA1306000026,Racine Ave & Fullerton Ave,TA1306000026,41.925566,-87.658416,41.925566,-87.658416,member,16,[355981.2751898758 584055.5512055566],[355981.2751898758 584055.5512055566],355981.2751898758,584055.5512055566,355981.2751898758,584055.5512055566
D09A650B5CCCDB14,electric_bike,2023-04-05T18:13:01,2023-04-05T18:19:40,McClurg Ct & Ohio St,TA1306000029,Clark St & Lake St,KA1503000012,41.892684579,-87.617336273,41.88602082773,-87.6308760584,member,18,[359419.15370988357 580431.057817246],[358301.5670457753 579681.6318011072],359419.15370988357,580431.057817246,358301.5670457753,579681.6318011072
A8F895466110B74F,electric_bike,2023-04-30T11:47:04,2023-04-30T11:49:24,,,,,41.8,-87.59,41.8,-87.59,member,11,[361776.8538757625 570156.0066280034],[361776.8538757625 570156.0066280034],361776.8538757625,570156.0066280034,361776.8538757625,570156.0066280034
78E0D28186B21D81,electric_bike,2023-04-21T11:41:16,2023-04-21T12:01:25,Larrabee St & Kingsbury St,TA1306000009,Sheffield Ave & Waveland Ave,TA1307000126,41.897632599,-87.642870903,41.949399,-87.654529,casual,11,[357295.6519467061 580963.2632458882],[356282.72498594975 586705.2308742437],357295.6519467061,580963.2632458882,356282.72498594975,586705.2308742437
FBFA45334C305736,classic_bike,2023-04-15T12:33:47,2023-04-15T13:05:18,Racine Ave & Randolph St,13155,Racine Ave & Congress Pkwy,TA1306000025,41.884069,-87.656853,41.87464,-87.65703,member,12,[356147.2668201864 579447.5213880774],[356140.82850363816 578400.1357912326],356147.2668201864,579447.5213880774,356140.82850363816,578400.1357912326
4F1DA6266571DD64,classic_bike,2023-04-02T10:50:15,2023-04-02T10:50:19,Southport Ave & Roscoe St,13071,Southport Ave & Roscoe St,13071,41.943739,-87.66402,41.943739,-87.66402,member,10,[355500.68861715175 586070.3839698771],[355500.68861715175 586070.3839698771],355500.68861715175,586070.3839698771,355500.68861715175,586070.3839698771
9DCF40AD099F2067,classic_bike,2023-04-05T08:49:39,2023-04-05T08:55:42,State St & Chicago Ave,21544,Larrabee St & Kingsbury St,TA1306000009,41.89661720040753,-87.62857854366302,41.897764,-87.642884,casual,8,[358482.58721691323 580860.1272561179],[357294.44767635106 580977.8491306955],358482.58721691323,580860.1272561179,357294.44767635106,580977.8491306955
ABE19EA65182BF15,electric_bike,2023-04-12T18:29:40,2023-04-12T18:40:42,State St & Kinzie St,13050,Green St & Randolph St*,chargingstx3,41.8886765,-87.62741433333333,41.883601657275165,-87.64862671494483,member,18,[358586.453549785 579978.9530547188],[356830.4589005442 579401.0290348004],358586.453549785,579978.9530547188,356830.4589005442,579401.0290348004
532CEB185A1F34FC,electric_bike,2023-04-27T18:23:38,2023-04-27T18:27:50,Green St & Madison St,TA1307000120,Aberdeen St & Jackson Blvd,13157,41.881860614,-87.649303913,41.87772613,-87.65478743,member,18,[356775.7926911228 579207.2046739348],[356324.27826887136 578744.3783173433],356775.7926911228,579207.2046739348,356324.27826887136,578744.3783173433
3A6884606460C639,electric_bike,2023-04-27T15:46:03,2023-04-27T15:51:18,Ellis Ave & 60th St,KA1503000014,,,41.785048,-87.60110833333333,41.79,-87.6,member,15,[360867.8027249145 568487.4012202859],[360955.2447109925 569038.192289479],360867.8027249145,568487.4012202859,360955.2447109925,569038.192289479
0AEC9AD9D2064EA6,electric_bike,2023-04-08T12:57:22,2023-04-08T13:00:54,State St & Randolph St,TA1305000029,Orleans St & Merchandise Mart Plaza,TA1305000022,41.884743,-87.628205,41.888243,-87.63639,member,12,[358524.4232643263 579541.522674803],[357841.9215284266 579924.7152321151],358524.4232643263,579541.522674803,357841.9215284266,579924.7152321151
0BC20F9D7489609F,electric_bike,2023-04-15T17:48:34,2023-04-15T17:55:56,Green St & Washington Blvd,13053,Elizabeth St & Fulton St,13197,41.883186333333335,-87.6487685,41.88671077318443,-87.65965729951859,casual,17,[356819.05869514454 579354.805485095],[355912.2077972447 579739.109854109],356819.05869514454,579354.805485095,355912.2077972447,579739.109854109
AA1DBEB8893D5AA3,classic_bike,2023-04-23T15:53:36,2023-04-23T15:57:59,Lake Park Ave & 56th St,TA1309000063,Kimbark Ave & 53rd St,TA1309000037,41.793242,-87.587782,41.799568,-87.594747,member,15,[361967.698276176 569407.0080702973],[361382.7505854174 570104.6245893525],361967.698276176,569407.0080702973,361382.7505854174,570104.6245893525
72D917CD98D31443,electric_bike,2023-04-14T07:21:55,2023-04-14T07:31:34,Ashland Ave & Wellington Ave,13269,Larrabee St & Webster Ave,13193,41.93610283333334,-87.66985833333334,41.921822,-87.64414,member,7,[355023.1254128382 585218.4700112534],[357168.7518675375 583649.1244308123],355023.1254128382,585218.4700112534,357168.7518675375,583649.1244308123
6F5A4EA32CCF8ADA,classic_bike,2023-04-11T19:08:46,2023-04-11T20:35:37,Burnham Harbor,15545,Fort Dearborn Dr & 31st St,TA1307000048,41.85741178707404,-87.61379152536392,41.838556,-87.608218,casual,19,[359746.17011536064 576515.8031421694],[360226.6465428636 574425.4116039362],359746.17011536064,576515.8031421694,360226.6465428636,574425.4116039362
DA8174CE2F114EB0,classic_bike,2023-04-13T17:00:17,2023-04-13T17:08:21,Ashland Ave & 13th St,13354,Halsted St & Maxwell St,TA1309000001,41.865234,-87.666507,41.864883,-87.647071,member,17,[355362.2419078027 577349.2671979793],[356976.2063475773 577322.9988556539],355362.2419078027,577349.2671979793,356976.2063475773,577322.9988556539
D552B2CAC4D5A890,electric_bike,2023-04-12T15:51:24,2023-04-12T16:14:08,Clark St & Elm St,TA1307000039,Wood St & Milwaukee Ave,13221,41.902794719,-87.631559134,41.907655,-87.672552,casual,15,[358229.63517706876 581544.2335617145],[354824.0812817063 582057.0495787177],358229.63517706876,581544.2335617145,354824.0812817063,582057.0495787177
FB1402B393C5FE29,electric_bike,2023-04-12T15:39:23,2023-04-12T15:39:44,Franklin St & Lake St,TA1307000111,Franklin St & Lake St,TA1307000111,41.885274172,-87.635814428,41.885837,-87.6355,casual,15,[357892.3709886405 579595.3579708614],[357917.95953658136 579658.0829945559],357892.3709886405,579595.3579708614,357917.95953658136,579658.0829945559
C66C533BD307B88D,electric_bike,2023-04-07T09:23:24,2023-04-07T09:30:18,Broadway & Waveland Ave,13325,,,41.949093819,-87.64854157,41.93,-87.64,member,9,[356779.4431563257 586675.283525791],[357504.8230380886 584560.2228363999],356779.4431563257,586675.283525791,357504.8230380886,584560.2228363999
9E803FED628A2473,electric_bike,2023-04-05T16:44:52,2023-04-05T16:55:44,Lincoln Ave & Fullerton Ave,TA1309000058,,,41.924126983,-87.646371961,41.95,-87.65,member,16,[356981.55824208946 583903.6530507285],[356657.71447986655 586774.9682429072],356981.55824208946,583903.6530507285,356657.71447986655,586774.9682429072
2D63FAF608C4AD0C,electric_bike,2023-04-27T23:29:35,2023-04-27T23:36:51,Elizabeth St & Randolph St,23001,Noble St & Milwaukee Ave,13290,41.88,-87.66,41.90068,-87.6626,casual,23,[355889.6131636725 578993.5271417021],[355655.8460222142 581288.7486585575],355889.6131636725,578993.5271417021,355655.8460222142,581288.7486585575
C867912CC5F11C3A,electric_bike,2023-04-21T22:05:44,2023-04-21T22:08:35,Racine Ave & Fullerton Ave,TA1306000026,Lincoln Ave & Diversey Pkwy,TA1307000064,41.925636411,-87.658438325,41.932225,-87.658617,member,22,[355979.36187116016 584063.3571734602],[355958.78290961613 584795.0349015957],355979.36187116016,584063.3571734602,355958.78290961613,584795.0349015957
5FDA8B9E0CBB3EF1,electric_bike,2023-04-12T23:14:12,2023-04-12T23:24:16,,,McClurg Ct & Ohio St,TA1306000029,41.88,-87.64,41.892592119709725,-87.61728912591934,casual,23,[357549.7095260857 579006.7450448658],[359423.15207545477 580420.8210728464],357549.7095260857,579006.7450448658,359423.15207545477,580420.8210728464
66852543237455C5,classic_bike,2023-04-20T13:52:38,2023-04-20T14:03:38,Field Blvd & South Water St,15534,DuSable Lake Shore Dr & Monroe St,13300,41.88634906269,-87.6175165471,41.880958,-87.616743,casual,13,[359410.0632966077 579727.2515078001],[359479.2651094526 579129.0062811822],359410.0632966077,579727.2515078001,359479.2651094526,579129.0062811822
ADE6347F95E92271,classic_bike,2023-04-09T00:51:55,2023-04-09T01:02:37,Halsted St & Roscoe St,TA1309000025,DuSable Lake Shore Dr & Diversey Pkwy,TA1309000039,41.94367,-87.64895,41.932588,-87.636427,member,0,[356750.38821188407 586072.5876913592],[357798.8314876214 584850.0747469795],356750.38821188407,586072.5876913592,357798.8314876214,584850.0747469795
EF5AC1C86F0C8401,electric_bike,2023-04-19T13:30:25,2023-04-19T13:41:45,,,Bernard St & Elston Ave,18016,41.94,-87.75,41.949923,-87.713949,member,13,[348373.8667616923 585602.9979516187],[351355.5027404251 586726.1192450912],348373.8667616923,585602.9979516187,351355.5027404251,586726.1192450912
726C44263D4CE99E,classic_bike,2023-04-15T07:01:28,2023-04-15T07:09:55,Broadway & Sheridan Rd,13323,Sheridan Rd & Montrose Ave,TA1307000107,41.952833,-87.649993,41.96167,-87.65464,casual,7,[356655.78598859423 587089.6353661462],[356262.7273328344 588068.1039187212],356655.78598859423,587089.6353661462,356262.7273328344,588068.1039187212
A9487A74A27885E7,electric_bike,2023-04-07T21:54:23,2023-04-07T21:54:58,,,,,41.94,-87.65,41.94,-87.65,member,21,[356666.569224948 585664.2652857535],[356666.569224948 585664.2652857535],356666.569224948,585664.2652857535,356666.569224948,585664.2652857535
F724C59B84E69BC4,electric_bike,2023-04-05T19:00:29,2023-04-05T19:08:43,Franklin St & Lake St,TA1307000111,State St & Chicago Ave,21544,41.886064,-87.63577683333334,41.89661720040753,-87.62857854366302,member,19,[357894.7781705684 579683.1088958303],[358482.58721691323 580860.1272561179],357894.7781705684,579683.1088958303,358482.58721691323,580860.1272561179
6C456BB5284E4E29,classic_bike,2023-04-11T16:43:59,2023-04-11T16:49:26,Bissell St & Armitage Ave*,chargingstx1,Sheffield Ave & Wrightwood Ave,TA1309000023,41.9182955629354,-87.65218332409859,41.928712,-87.653833,member,16,[356504.66382536065 583252.1127719817],[356358.6467025821 584407.979508663],356504.66382536065,583252.1127719817,356358.6467025821,584407.979508663
703DA08A66C66DEB,electric_bike,2023-04-18T10:13:21,2023-04-18T10:14:17,,,,,41.93,-87.65,41.93,-87.65,casual,10,[356675.422234935 584553.5642423917],[356675.422234935 584553.5642423917],356675.422234935,584553.5642423917,356675.422234935,584553.5642423917
C6D76351188FA6B3,electric_bike,2023-04-13T19:46:41,2023-04-13T20:04:34,,,,,41.97,-87.65,41.95,-87.65,casual,19,[356639.9997854735 588996.3798988918],[356657.71447986655 586774.9682429072],356639.9997854735,588996.3798988918,356657.71447986655,586774.9682429072
969FEE784F44EE38,classic_bike,2023-04-20T17:04:59,2023-04-20T17:16:19,Sedgwick St & Webster Ave,13191,Orleans St & Elm St,TA1306000006,41.922167,-87.638888,41.902924,-87.637715,member,17,[357604.0985290962 583690.9582373004],[357718.7336807197 581554.4325153029],357604.0985290962,583690.9582373004,357718.7336807197,581554.4325153029
E959135C0BEBFD09,electric_bike,2023-04-08T19:05:53,2023-04-08T19:13:54,Dearborn St & Van Buren St,624,Field Museum,13029,41.876241446,-87.629359961,41.865312,-87.617867,member,19,[358436.3084883997 578596.4755705094],[359400.45426643116 577390.4422348667],358436.3084883997,578596.4755705094,359400.45426643116,577390.4422348667
9AC723C0C7ABE497,electric_bike,2023-04-17T11:47:49,2023-04-17T11:55:35,Broadway & Barry Ave,13137,Greenview Ave & Fullerton Ave,TA1307000001,41.937791705,-87.64400363,41.92533,-87.6658,casual,11,[357165.80322995497 585422.9708094369],[355369.00751864834 584024.5443028532],357165.80322995497,585422.9708094369,355369.00751864834,584024.5443028532
EBAF8ED8814BB198,electric_bike,2023-04-02T21:35:50,2023-04-02T21:41:14,Clark St & Montrose Ave,KA1503000022,Damen Ave & Leland Ave,TA1307000158,41.96152266666667,-87.66626716666667,41.967094,-87.679028,member,21,[355298.9741473783 588044.1703876272],[354236.3860967389 588654.8251205649],355298.9741473783,588044.1703876272,354236.3860967389,588654.8251205649
2D5DE28BB77ABA39,classic_bike,2023-04-14T11:06:59,2023-04-14T11:22:11,DuSable Lake Shore Dr & Monroe St,13300,Burnham Harbor,15545,41.880958,-87.616743,41.85741178707404,-87.61379152536392,member,11,[359479.2651094526 579129.0062811822],[359746.17011536064 576515.8031421694],359479.2651094526,579129.0062811822,359746.17011536064,576515.8031421694
4867A891AC9478BD,electric_bike,2023-04-16T21:59:31,2023-04-16T22:03:13,Milwaukee Ave & Grand Ave,13033,,,41.891649,-87.6483215,41.89,-87.64,casual,21,[356848.6566012881 580295.0431384926],[357540.735751586 580117.4367778355],356848.6566012881,580295.0431384926,357540.735751586,580117.4367778355
7186F42A1C936349,classic_bike,2023-04-13T17:15:40,2023-04-13T17:31:37,Burnham Harbor,15545,Michigan Ave & Lake St,TA1305000011,41.85741178707404,-87.61379152536392,41.886022,-87.624398,member,17,[359746.17011536064 576515.8031421694],[358839.2258248814 579686.1835526298],359746.17011536064,576515.8031421694,358839.2258248814,579686.1835526298
585D01AEA21DD304,electric_bike,2023-04-09T19:12,2023-04-09T19:25:30,Ashland Ave & Wrightwood Ave,13296,Larrabee St & Webster Ave,13193,41.928827763,-87.668602586,41.921822,-87.64414,member,19,[355133.53217354574 584411.2346120705],[357168.7518675375 583649.1244308123],355133.53217354574,584411.2346120705,357168.7518675375,583649.1244308123
8190C2725E1F816D,electric_bike,2023-04-23T10:12:30,2023-04-23T10:25,Clark St & Lincoln Ave,13179,Broadway & Cornelia Ave,13278,41.915806333333336,-87.63465916666667,41.945529,-87.646439,casual,10,[357960.63701404125 582987.329406187],[356956.951600234 586280.732887289],357960.63701404125,582987.329406187,356956.951600234,586280.732887289
8CCEDBD07B300CE5,electric_bike,2023-04-26T08:24:16,2023-04-26T08:42:09,Morgan St & 31st St,TA1308000046,State St & Randolph St,TA1305000029,41.837798953,-87.651203036,41.88462107257936,-87.62783423066139,member,8,[356657.0426512749 574312.0802371325],[358555.30797974014 579528.2332211189],356657.0426512749,574312.0802371325,358555.30797974014,579528.2332211189
ECD762E77BD27879,electric_bike,2023-04-18T17:28:54,2023-04-18T17:50:55,Cityfront Plaza Dr & Pioneer Ct,13427,Clark St & Wrightwood Ave,TA1305000014,41.890499711,-87.622098684,41.929546,-87.643118,casual,17,[359025.94010841206 580185.0988425204],[357246.6217807241 584507.7105170146],359025.94010841206,580185.0988425204,357246.6217807241,584507.7105170146
ACFA5714B5031700,electric_bike,2023-04-10T14:20:02,2023-04-10T14:27:28,Canal St & Madison St,13341,Clark St & Elm St,TA1307000039,41.88234666666666,-87.639312,41.902973,-87.63128,member,14,[357604.70907738 579267.8487836155],[358252.63436210435 581564.2246616941],357604.70907738,579267.8487836155,358252.63436210435,581564.2246616941
B6EE70C78AF6C026,electric_bike,2023-04-16T01:27,2023-04-16T01:51:46,Green St & Washington Blvd,13053,Milwaukee Ave & Fullerton Ave,428,41.88316916666667,-87.64882716666666,41.92,-87.7,member,1,[356814.20452925697 579352.8599573956],[352536.62454201054 583411.0245339879],356814.20452925697,579352.8599573956,352536.62454201054,583411.0245339879
1DD92C2D256E2D8E,electric_bike,2023-04-17T12:47:07,2023-04-17T12:50:08,,,,,41.79,-87.6,41.79,-87.6,member,12,[360955.2447109925 569038.192289479],[360955.2447109925 569038.192289479],360955.2447109925,569038.192289479,360955.2447109925,569038.192289479
EA6AB6C4C177B661,electric_bike,2023-04-15T20:49:25,2023-04-15T21:00:23,Wabash Ave & Wacker Pl,TA1307000131,State St & Van Buren St,TA1305000035,41.886667252,-87.626173735,41.877181,-87.627844,member,20,[358691.2544219585 579756.6351461236],[358561.29021387675 578701.8641908395],358691.2544219585,579756.6351461236,358561.29021387675,578701.8641908395
A1D5E579B6E6E4B9,classic_bike,2023-04-12T16:29:18,2023-04-12T16:31:06,Broadway & Waveland Ave,13325,Broadway & Cornelia Ave,13278,41.949074,-87.648636,41.945529,-87.646439,member,16,[356771.63104724983 586673.0196682039],[356956.951600234 586280.732887289],356771.63104724983,586673.0196682039,356956.951600234,586280.732887289
3F238FC9A6BCD2CD,classic_bike,2023-04-03T18:29:55,2023-04-03T18:35:38,Michigan Ave & 18th St,13150,Wentworth Ave & Cermak Rd,13075,41.857813,-87.62455,41.85308455741279,-87.63193130493164,member,18,[358852.4818999697 576552.9349423021],[358243.8758837006 576022.7201137918],358852.4818999697,576552.9349423021,358243.8758837006,576022.7201137918
0259822FFE881307,electric_bike,2023-04-28T10:16,2023-04-28T10:22:57,Morgan St & Polk St,TA1307000130,Racine Ave & 18th St,13164,41.872021198,-87.650974512,41.858166,-87.656495,member,10,[356645.81746648764 578113.2467943367],[356199.66616288107 576570.7388618692],356645.81746648764,578113.2467943367,356199.66616288107,576570.7388618692
97B8ED97CE61C4B5,electric_bike,2023-04-28T07:28:50,2023-04-28T07:32:19,Southport Ave & Wellington Ave,TA1307000006,Sheffield Ave & Wellington Ave,TA1307000052,41.9358525,-87.66349183333334,41.9362534831413,-87.65266209840775,member,7,[355551.33008446184 585194.7712515376],[356449.1131687218 585246.3827235281],355551.33008446184,585194.7712515376,356449.1131687218,585246.3827235281
0B490A62F44C9487,electric_bike,2023-04-25T17:54:01,2023-04-25T17:54:12,Michigan Ave & 8th St,623,Michigan Ave & 8th St,623,41.872460842,-87.623986483,41.872773,-87.623981,member,17,[358885.8297057727 578180.2401165937],[358885.9983482724 578214.9149483864],358885.8297057727,578180.2401165937,358885.9983482724,578214.9149483864
7D756E36F8CFB15E,classic_bike,2023-04-22T13:05:27,2023-04-22T13:11:41,Clark St & Wrightwood Ave,TA1305000014,Wilton Ave & Belmont Ave,TA1307000134,41.929546,-87.643118,41.940231918108594,-87.65294373035431,member,13,[357246.6217807241 584507.7105170146],[356422.24971771374 585688.0827223136],357246.6217807241,584507.7105170146,356422.24971771374,585688.0827223136
42DDC7EFA8548E15,electric_bike,2023-04-08T22:10:27,2023-04-08T22:15:25,Dearborn Pkwy & Delaware Pl,TA1307000128,Wabash Ave & Wacker Pl,TA1307000131,41.898941755,-87.629971147,41.886875,-87.62603,member,22,[358364.90762053133 581117.3658986903],[358702.9936939344 579779.8078782655],358364.90762053133,581117.3658986903,358702.9936939344,579779.8078782655
DB3C583AD952B603,electric_bike,2023-04-02T16:12:31,2023-04-02T16:18:56,LaSalle St & Adams St,KA1503000034,Columbus Dr & Randolph St,13263,41.879518151,-87.631846189,41.884728,-87.619521,member,16,[358226.9527877667 578958.7263511538],[359245.19809174014 579545.8155058671],358226.9527877667,578958.7263511538,359245.19809174014,579545.8155058671
9B046233B2AE4BFE,electric_bike,2023-04-03T10:25:56,2023-04-03T10:25:59,May St & Cullerton St,13331,May St & Cullerton St,13331,41.855172634,-87.654141903,41.855136,-87.654127,member,10,[356397.68093049584 576239.8128205645],[356398.95061570214 576235.7537234968],356397.68093049584,576239.8128205645,356398.95061570214,576235.7537234968
CC471A48A534850E,electric_bike,2023-04-10T17:32:09,2023-04-10T17:43:04,Sheffield Ave & Kingsbury St,13154,Milwaukee Ave & Wabansia Ave,13243,41.910568166666664,-87.65317716666667,41.912616,-87.681391,member,17,[356429.0259033787 582393.178820117],[354086.5304516853 582602.4539664816],356429.0259033787,582393.178820117,354086.5304516853,582602.4539664816
8F5FECEF5DACA046,classic_bike,2023-04-26T06:19:35,2023-04-26T06:29:56,McClurg Ct & Ohio St,TA1306000029,Wacker Dr & Washington St,KA1503000072,41.892592119709725,-87.61728912591934,41.88314336439022,-87.63724207878113,member,6,[359423.15207545477 580420.8210728464],[357775.79852023156 579357.7287975136],359423.15207545477,580420.8210728464,357775.79852023156,579357.7287975136
85ED2836B39A4B1D,electric_bike,2023-04-07T15:22:10,2023-04-07T15:25:33,DuSable Lake Shore Dr & Belmont Ave,TA1309000049,Pine Grove Ave & Waveland Ave,TA1307000150,41.94076252,-87.639122367,41.94947274088333,-87.64645278453827,casual,15,[357567.93416694895 585756.206429135],[356952.29820332455 586718.7564174915],357567.93416694895,585756.206429135,356952.29820332455,586718.7564174915
661BB2DF0BF99843,classic_bike,2023-04-04T20:37:16,2023-04-04T20:48:37,Western Ave & Leland Ave,TA1307000140,Clark St & Winnemac Ave,TA1309000035,41.966399801840986,-87.68870428204536,41.973347640473044,-87.6678554713726,member,20,[353434.88048733235 588571.640042503],[355157.10341271677 589356.5544737027],353434.88048733235,588571.640042503,355157.10341271677,589356.5544737027
2AB5257AE6BBE334,classic_bike,2023-04-13T15:30:59,2023-04-13T15:46:53,Mies van der Rohe Way & Chicago Ave,13338,Clinton St & Jackson Blvd,638,41.896944626370825,-87.62175768613815,41.878316611830684,-87.64098107814789,member,15,[359048.3032312365 580901.166280386],[357469.7836186739 578819.1152909332],359048.3032312365,580901.166280386,357469.7836186739,578819.1152909332
C8D8562D87858D74,electric_bike,2023-04-03T14:56:21,2023-04-03T15:01:59,900 W Harrison St,13028,,,41.874736309,-87.649851918,41.89,-87.65,member,14,[356736.60846223374 578415.552701254],[356710.8169186776 580110.7792053003],356736.60846223374,578415.552701254,356710.8169186776,580110.7792053003
96109AC56EBD3BEA,electric_bike,2023-04-12T15:20:17,2023-04-12T15:26:55,,,Clarendon Ave & Gordon Ter,13379,41.97,-87.65,41.95786652415174,-87.64950513839722,casual,15,[356639.9997854735 588996.3798988918],[356691.7736397417 587649.0340191497],356639.9997854735,588996.3798988918,356691.7736397417,587649.0340191497
FE82C261335E5B4C,classic_bike,2023-04-22T18:42:45,2023-04-22T19:05:37,Stony Island Ave & 67th St,KA1503000023,University Ave & 57th St,KA1503000071,41.77345849948,-87.5853397391,41.791478,-87.599861,casual,18,[362189.8068333714 567211.4698126414],[360965.3980530323 569202.4485881036],362189.8068333714,567211.4698126414,360965.3980530323,569202.4485881036
0DE73EF49F97A4B1,classic_bike,2023-04-26T16:50:04,2023-04-26T17:07:30,Adler Planetarium,13431,Clinton St & Washington Blvd,WL-012,41.866095,-87.607267,41.88338,-87.64117,member,16,[360279.77206268616 577484.798051307],[357449.56604773784 579381.3747240091],360279.77206268616,577484.798051307,357449.56604773784,579381.3747240091
DCF5DB16295F0E6F,classic_bike,2023-04-19T13:18:15,2023-04-19T13:38:59,Kilbourn Ave & Irving Park Rd,590,St. Louis Ave & Balmoral Ave,KA1504000161,41.953733,-87.740569,41.98039423475,-87.7161149615,member,13,[349145.4020579498 587133.6888423616],[351151.53358929517 590109.2797048347],349145.4020579498,587133.6888423616,351151.53358929517,590109.2797048347
69A463322BDF9392,classic_bike,2023-04-20T11:11:17,2023-04-20T11:20:08,Theater on the Lake,TA1308000001,Broadway & Barry Ave,13137,41.926277,-87.630834,41.93758231600629,-87.6440978050232,member,11,[358268.4399573025 584152.8973913747],[357158.18027998914 585399.651142496],358268.4399573025,584152.8973913747,357158.18027998914,585399.651142496
5A5D1F1606FDB82D,electric_bike,2023-04-16T09:19:37,2023-04-16T09:24:35,Southport Ave & Waveland Ave,13235,Southport Ave & Wellington Ave,TA1307000006,41.948079824,-87.664215088,41.93577461766458,-87.66360014677048,member,9,[355480.74769386085 586552.3941981571],[355542.4149623234 585186.0506741586],355480.74769386085,586552.3941981571,355542.4149623234,585186.0506741586
1157F51793A7E170,classic_bike,2023-04-10T17:33:25,2023-04-10T17:38:05,Michigan Ave & 18th St,13150,Wabash Ave & Roosevelt Rd,TA1305000002,41.857813,-87.62455,41.867227,-87.625961,member,17,[358852.4818999697 576552.9349423021],[358726.7063379414 577597.5702292662],358852.4818999697,576552.9349423021,358726.7063379414,577597.5702292662
8B5F8D766D4F3DAC,electric_bike,2023-04-17T15:35:55,2023-04-17T15:38:49,Halsted St & Polk St,TA1307000121,Desplaines St & Jackson Blvd,15539,41.871804476,-87.646575093,41.87811890091227,-87.64394760131836,member,15,[357011.2284673669 578092.0883972156],[357223.7177836873 578795.1735593819],357011.2284673669,578092.0883972156,357223.7177836873,578795.1735593819
F788514889F4F76C,electric_bike,2023-04-28T08:39:10,2023-04-28T08:43:29,,,Michigan Ave & Lake St,TA1305000011,41.89,-87.63,41.886022,-87.624398,member,8,[358370.6547779136 580124.1910816967],[358839.2258248814 579686.1835526298],358370.6547779136,580124.1910816967,358839.2258248814,579686.1835526298
8EDC1E2D26F91881,electric_bike,2023-04-15T20:54:01,2023-04-15T21:06:42,,,Clark St & Berwyn Ave,KA1504000146,42.01,-87.66,41.978030622486564,-87.66856491565704,member,20,[355776.1862451185 593432.6623564523],[355094.2655194887 589876.240673946],355776.1862451185,593432.6623564523,355094.2655194887,589876.240673946
7F5466E92F59C70B,electric_bike,2023-04-13T18:13:16,2023-04-13T18:21:27,Wells St & Elm St,KA1504000135,,,41.90318366666666,-87.634686,41.92,-87.64,member,18,[357969.83057351696 581585.3160333874],[357513.8038582541 583449.5234525988],357969.83057351696,581585.3160333874,357513.8038582541,583449.5234525988
E7D1BE649EB4B0CA,classic_bike,2023-04-21T08:58:28,2023-04-21T09:05:17,Halsted St & Dickens Ave,13192,Larrabee St & North Ave,TA1306000008,41.919936,-87.64883,41.91021,-87.6435,member,8,[356781.3852901207 583436.5306727848],[357232.21435134445 582359.8092732428],356781.3852901207,583436.5306727848,357232.21435134445,582359.8092732428
7415A26D08249D05,electric_bike,2023-04-27T09:45:15,2023-04-27T09:50:18,Financial Pl & Ida B Wells Dr,SL-010,Halsted St & Polk St,TA1307000121,41.875070214,-87.633168221,41.87184,-87.64664,member,9,[358121.2470959986 578463.8021497345],[357005.80861983274 578095.9909006249],358121.2470959986,578463.8021497345,357005.80861983274,578095.9909006249
98EACAE749EDD72D,electric_bike,2023-04-18T13:27,2023-04-18T13:35:11,Streeter Dr & Grand Ave,13022,Wells St & Hubbard St,TA1307000151,41.892315984,-87.612136602,41.889906,-87.634266,member,13,[359851.01054984395 580393.7321691894],[358016.6963568994 580110.8573522002],359851.01054984395,580393.7321691894,358016.6963568994,580110.8573522002
9C89AF98B022874D,docked_bike,2023-04-08T17:20:38,2023-04-08T18:05:27,Indiana Ave & Roosevelt Rd,SL-005,Fairbanks Ct & Grand Ave,TA1305000003,41.867888,-87.623041,41.891847,-87.62058,casual,17,[358968.52135140926 577672.9884971633],[359150.7345955692 580335.7871812156],358968.52135140926,577672.9884971633,359150.7345955692,580335.7871812156
F2E9DA47B4BD00DE,electric_bike,2023-04-12T16:17:18,2023-04-12T16:23:54,,,Kingsbury St & Erie St,13265,41.88,-87.63,41.89380805624359,-87.64169722795485,member,16,[358379.7579969846 579013.4990875969],[357396.4702339667 580539.2581654616],358379.7579969846,579013.4990875969,357396.4702339667,580539.2581654616
CA57AD0F97D028EA,electric_bike,2023-04-29T22:25:56,2023-04-29T22:34:51,Racine Ave & Belmont Ave,TA1308000019,Sedgwick St & Webster Ave,13191,41.93971116666667,-87.65886983333333,41.922167,-87.638888,casual,22,[355931.2720291208 585626.3591960276],[357604.0985290962 583690.9582373004],355931.2720291208,585626.3591960276,357604.0985290962,583690.9582373004
1B635CEAF7C46832,classic_bike,2023-04-01T11:22:14,2023-04-01T11:25:27,Fairbanks St & Superior St,18003,Streeter Dr & Grand Ave,13022,41.895748,-87.620104,41.892278,-87.612043,member,11,[359186.63585760066 580769.3971425595],[359858.81394717825 580389.578606188],359186.63585760066,580769.3971425595,359858.81394717825,580389.578606188
79EFFBEF2AC30D6D,classic_bike,2023-04-21T16:06:30,2023-04-21T16:08:38,Field Museum,13029,Shedd Aquarium,15544,41.865312,-87.617867,41.86722595682,-87.6153553902,member,16,[359400.45426643116 577390.4422348667],[359607.1999418604 577604.7642033331],359400.45426643116,577390.4422348667,359607.1999418604,577604.7642033331
A8CB0C2E9F2F78BC,classic_bike,2023-04-30T16:52:49,2023-04-30T17:06:11,Columbus Dr & Randolph St,13263,Wells St & Elm St,KA1504000135,41.884728,-87.619521,41.903222,-87.634324,member,16,[359245.19809174014 579545.8155058671],[357999.83276997413 581589.818390498],359245.19809174014,579545.8155058671,357999.83276997413,581589.818390498
6B186B1497FA81C0,classic_bike,2023-04-08T16:38:12,2023-04-08T17:26:47,Shore Dr & 55th St,TA1308000009,Streeter Dr & Grand Ave,13022,41.795212,-87.580715,41.892278,-87.612043,casual,16,[362553.17157958593 569630.9295149547],[359858.81394717825 580389.578606188],362553.17157958593,569630.9295149547,359858.81394717825,580389.578606188
85615C384642D15E,classic_bike,2023-04-22T15:02:07,2023-04-22T15:24:31,Field Blvd & South Water St,15534,Franklin St & Lake St,TA1307000111,41.88634906269,-87.6175165471,41.885837,-87.6355,casual,15,[359410.0632966077 579727.2515078001],[357917.95953658136 579658.0829945559],359410.0632966077,579727.2515078001,357917.95953658136,579658.0829945559
686D18D591FBDD9E,electric_bike,2023-04-11T18:52:11,2023-04-11T19:50:41,Wabash Ave & Roosevelt Rd,TA1305000002,,,41.867113471,-87.625973701,41.89,-87.63,member,18,[358725.755786441 577584.9520027619],[358370.6547779136 580124.1910816967],358725.755786441,577584.9520027619,358370.6547779136,580124.1910816967
82864C45C55ABBBE,classic_bike,2023-04-03T08:14:44,2023-04-03T08:46:39,Clark St & Winnemac Ave,TA1309000035,Knox Ave & Montrose Ave,592,41.973347640473044,-87.6678554713726,41.960631,-87.745359,member,8,[355157.10341271677 589356.5544737027],[348743.010398522 587897.1160767447],355157.10341271677,589356.5544737027,348743.010398522,587897.1160767447
A6EF1136B3FF055C,electric_bike,2023-04-12T16:45:33,2023-04-12T16:46:04,,,,,41.88,-87.64,41.88,-87.64,member,16,[357549.7095260857 579006.7450448658],[357549.7095260857 579006.7450448658],357549.7095260857,579006.7450448658,357549.7095260857,579006.7450448658
C120A8AC2C41F58B,classic_bike,2023-04-16T15:51:36,2023-04-16T16:01:47,Halsted St & Roscoe St,TA1309000025,Lincoln Ave & Diversey Pkwy,TA1307000064,41.94367,-87.64895,41.932225,-87.658617,member,15,[356750.38821188407 586072.5876913592],[355958.78290961613 584795.0349015957],356750.38821188407,586072.5876913592,355958.78290961613,584795.0349015957
932B6BEA6F03B52F,classic_bike,2023-04-12T09:29:06,2023-04-12T09:55:09,Morgan Ave & 14th Pl,TA1306000002,Dearborn St & Monroe St,TA1305000006,41.862378,-87.651062,41.881319815,-87.6295209193,member,9,[356647.0671677957 577042.1305908256],[358418.3218496179 579160.415776356],356647.0671677957,577042.1305908256,358418.3218496179,579160.415776356
C313AD14F8FA4CD6,classic_bike,2023-04-04T09:15:03,2023-04-04T09:50:17,Racine Ave & Belmont Ave,TA1308000019,McClurg Ct & Erie St,KA1503000041,41.939743,-87.658865,41.894503,-87.617854,member,9,[355931.64502622385 585629.8980834503],[359374.5041201262 580632.6703303423],355931.64502622385,585629.8980834503,359374.5041201262,580632.6703303423
BEAB2F54C6F4A82D,classic_bike,2023-04-03T14:16:16,2023-04-03T14:20:03,Clark St & Ida B Wells Dr,TA1305000009,Wells St & Polk St,SL-011,41.8759326655,-87.6305845355,41.872731542263075,-87.63351649045944,member,14,[358334.93770701165 578561.3465945524],[358094.45465656265 578203.8124935101],358334.93770701165,578561.3465945524,358094.45465656265,578203.8124935101
82411EE60A63D4DA,electric_bike,2023-04-01T05:46:59,2023-04-01T05:50:03,Michigan Ave & Lake St,TA1305000011,St. Clair St & Erie St,13016,41.88569733333333,-87.62407283333333,41.89434513742426,-87.62279838323593,member,5,[358866.51175377076 579650.34608538],[358964.33423406497 580611.7268012591],358866.51175377076,579650.34608538,358964.33423406497,580611.7268012591
0C49D0F9FE060FBC,classic_bike,2023-04-07T11:05:02,2023-04-07T11:18:34,Leavitt St & Armitage Ave,TA1309000029,Ashland Ave & Division St,13061,41.917805,-87.682437,41.90345,-87.667747,member,11,[353995.3776013947 583178.135266971],[355226.3711185928 581593.0846272735],353995.3776013947,583178.135266971,355226.3711185928,581593.0846272735
B39CE6CBDFCFCB81,classic_bike,2023-04-04T12:39:57,2023-04-04T12:43:30,Leavitt St & North Ave,TA1308000005,Western Ave & Winnebago Ave,13068,41.91050936666395,-87.6823890209198,41.91552,-87.687022,member,12,[354005.50789138913 582367.8422144969],[353616.9378524992 582921.46448768],354005.50789138913,582367.8422144969,353616.9378524992,582921.46448768
869980F6B19D150B,electric_bike,2023-04-17T15:20:31,2023-04-17T15:27:27,Damen Ave & Cortland St,13133,Campbell Ave & North Ave,13257,41.9160215,-87.6773285,41.910535,-87.689556,member,15,[354420.6726180379 582983.2714680637],[353410.87630113284 582366.2015220518],354420.6726180379,582983.2714680637,353410.87630113284,582366.2015220518
EB76DC71451A2FF5,classic_bike,2023-04-19T08:58:25,2023-04-19T09:03:16,Sedgwick St & Huron St,TA1307000062,Orleans St & Merchandise Mart Plaza,TA1305000022,41.894666,-87.638437,41.888243,-87.63639,member,8,[357666.2548748835 580636.7355334136],[357841.9215284266 579924.7152321151],357666.2548748835,580636.7355334136,357841.9215284266,579924.7152321151
03CB8080261A5860,electric_bike,2023-04-10T16:33:16,2023-04-10T16:45:48,Montrose Harbor,TA1308000012,DuSable Lake Shore Dr & Belmont Ave,TA1309000049,41.963928833333334,-87.6382335,41.940775,-87.639192,member,16,[357620.77503753884 588329.8969677304],[357562.14854601707 585757.5458244408],357620.77503753884,588329.8969677304,357562.14854601707,585757.5458244408
328F91EE3761FEB7,docked_bike,2023-04-30T13:43:52,2023-04-30T14:58:39,DuSable Lake Shore Dr & Monroe St,13300,DuSable Lake Shore Dr & Monroe St,13300,41.880958,-87.616743,41.880958,-87.616743,casual,13,[359479.2651094526 579129.0062811822],[359479.2651094526 579129.0062811822],359479.2651094526,579129.0062811822,359479.2651094526,579129.0062811822
EADCA453499FA1D9,electric_bike,2023-04-21T16:03,2023-04-21T16:12:03,Wood St & Milwaukee Ave,13221,W Armitage Ave & N Sheffield Ave,20254.0,41.90766716666667,-87.672491,41.92,-87.65,member,16,[354829.13197799074 582058.4399145267],[356684.2735095646 583442.8651127425],354829.13197799074,582058.4399145267,356684.2735095646,583442.8651127425
5B9E2DC5BFDD520B,classic_bike,2023-04-15T22:45:25,2023-04-15T22:52:58,Lake Park Ave & 35th St,KA1503000004,Rhodes Ave & 32nd St,13215,41.83127423549,-87.6087991946,41.836208,-87.613533,member,22,[360185.1952485832 573616.2310339115],[359787.375971723 574160.909955868],360185.1952485832,573616.2310339115,359787.375971723,574160.909955868
03AD13BE2DF5434D,classic_bike,2023-04-21T17:27:57,2023-04-21T17:34:11,MLK Jr Dr & 29th St,TA1307000139,State St & 33rd St,13216,41.842052,-87.617,41.834734,-87.625813,member,17,[359493.98821955855 574807.5860444164],[358768.7288213487 573988.7207601244],359493.98821955855,574807.5860444164,358768.7288213487,573988.7207601244
015CB311E31BE328,docked_bike,2023-04-13T11:28:10,2023-04-13T11:50:05,State St & Van Buren St,TA1305000035,Streeter Dr & Grand Ave,13022,41.877181,-87.627844,41.892278,-87.612043,casual,11,[358561.29021387675 578701.8641908395],[359858.81394717825 580389.578606188],358561.29021387675,578701.8641908395,359858.81394717825,580389.578606188
743160E5D54B60C3,electric_bike,2023-04-27T19:01:41,2023-04-27T19:33:43,,,,,41.79,-87.61,41.88,-87.62,casual,19,[360124.03176613065 569031.150550652],[359209.8066647358 579020.3498584018],360124.03176613065,569031.150550652,359209.8066647358,579020.3498584018
73E6B5EBFE3F576D,classic_bike,2023-04-20T08:11:25,2023-04-20T08:17:21,Clinton St & Washington Blvd,WL-012,Peoria St & Jackson Blvd,13158,41.88338,-87.64117,41.8776415962753,-87.64961779117584,member,8,[357449.56604773784 579381.3747240091],[356753.4731871085 578738.3947855612],357449.56604773784,579381.3747240091,356753.4731871085,578738.3947855612
0E2E4609F747DF50,classic_bike,2023-04-21T10:23:04,2023-04-21T11:34:29,Michigan Ave & Washington St,13001,Burnham Harbor,15545,41.8839840647265,-87.6246839761734,41.85741178707404,-87.61379152536392,casual,10,[358817.35984054796 579459.6356373761],[359746.17011536064 576515.8031421694],358817.35984054796,579459.6356373761,359746.17011536064,576515.8031421694
762BCEADE42AF19A,classic_bike,2023-04-18T20:33:45,2023-04-18T20:51:31,Lincoln Ave & Waveland Ave,13253,Sheffield Ave & Willow St,TA1306000032,41.948797,-87.675278,41.913688,-87.652855,member,20,[354562.8369845855 586624.9491779028],[356453.0053195377 582739.9096493992],354562.8369845855,586624.9491779028,356453.0053195377,582739.9096493992
52B09E00F049CB15,classic_bike,2023-04-14T16:21:04,2023-04-14T16:21:14,Cherry Ave & Blackhawk St,18069,Cherry Ave & Blackhawk St,18069,41.907221,-87.655618,41.907221,-87.655618,casual,16,[356229.45897757116 582019.807447571],[356229.45897757116 582019.807447571],356229.45897757116,582019.807447571,356229.45897757116,582019.807447571
FA1A57262ED7105E,classic_bike,2023-04-04T15:33:44,2023-04-04T15:37:58,Aberdeen St & Monroe St,13156,Aberdeen St & Monroe St,13156,41.880419,-87.655519,41.880419,-87.655519,casual,15,[356261.1901378007 579042.9929091368],[356261.1901378007 579042.9929091368],356261.1901378007,579042.9929091368,356261.1901378007,579042.9929091368
9DF365E8DD25E7E4,electric_bike,2023-04-28T12:20:55,2023-04-28T12:26:06,,,,,41.93,-87.68,41.92,-87.68,member,12,[354187.22094311897 584534.1689325426],[354195.6835848893 583423.4705432212],354187.22094311897,584534.1689325426,354195.6835848893,583423.4705432212
CBE3864DFC337734,classic_bike,2023-04-11T16:45:09,2023-04-11T17:41:51,Michigan Ave & Oak St,13042,Michigan Ave & Jackson Blvd,TA1309000002,41.90096039,-87.62377664,41.87785,-87.62408,casual,16,[358877.075514654 581345.8074782765],[358873.1202167864 578778.744499509],358877.075514654,581345.8074782765,358873.1202167864,578778.744499509
ABF46632B06D666A,electric_bike,2023-04-23T11:31:36,2023-04-23T11:36:03,Broadway & Argyle St,13108,Clark St & Winnemac Ave,TA1309000035,41.97377866666667,-87.66000633333333,41.973347640473044,-87.6678554713726,casual,11,[355807.2939965049 589409.5124063436],[355157.10341271677 589356.5544737027],355807.2939965049,589409.5124063436,355157.10341271677,589356.5544737027
147763F25C8CD6BB,classic_bike,2023-04-07T14:54:45,2023-04-07T14:56:56,Glenwood Ave & Touhy Ave,525,Glenwood Ave & Touhy Ave,525,42.012701,-87.666058,42.012701,-87.666058,casual,14,[355272.02532810665 593728.7372568833],[355272.02532810665 593728.7372568833],355272.02532810665,593728.7372568833,355272.02532810665,593728.7372568833
6DA00D844716A651,classic_bike,2023-04-27T08:23:29,2023-04-27T08:39:37,Leavitt St & Addison St,KA1504000143,Greenview Ave & Fullerton Ave,TA1307000001,41.946655,-87.683359,41.92533,-87.6658,member,8,[353894.59971879836 586381.9237934715],[355369.00751864834 584024.5443028532],353894.59971879836,586381.9237934715,355369.00751864834,584024.5443028532
B610DDA2DDE12AE2,classic_bike,2023-04-06T16:13:09,2023-04-06T16:15:15,Franklin St & Lake St,TA1307000111,Orleans St & Hubbard St,636,41.885837,-87.6355,41.890028,-87.636618,member,16,[357917.95953658136 579658.0829945559],[357821.38909287227 580122.8201979203],357917.95953658136,579658.0829945559,357821.38909287227,580122.8201979203
859FE39318E3BF40,classic_bike,2023-04-11T18:58:23,2023-04-11T19:59:33,Wabash Ave & 16th St,SL-012,Michigan Ave & 18th St,13150,41.860384,-87.625813,41.857813,-87.62455,casual,18,[358745.2573172675 576837.6276535682],[358852.4818999697 576552.9349423021],358745.2573172675,576837.6276535682,358852.4818999697,576552.9349423021
C51A63E4F333E746,electric_bike,2023-04-18T18:38:21,2023-04-18T18:43,,,,,41.87,-87.65,41.86,-87.65,casual,18,[356728.5038431438 577889.3981674759],[356737.34470010555 576778.7105184698],356728.5038431438,577889.3981674759,356737.34470010555,576778.7105184698
F83F104EAAF988DA,electric_bike,2023-04-22T01:42:11,2023-04-22T01:50:50,Sheridan Rd & Montrose Ave,TA1307000107,,,41.961572051,-87.654598475,41.94,-87.65,member,1,[356266.2558902555 588057.2519309326],[356666.569224948 585664.2652857535],356266.2558902555,588057.2519309326,356666.569224948,585664.2652857535
5FCF3FC209031202,classic_bike,2023-04-14T16:58:14,2023-04-14T17:03:12,Ellis Ave & 55th St,KA1504000076,Ellis Ave & 60th St,KA1503000014,41.79430062054,-87.6014497734,41.78509714636,-87.6010727606,member,16,[360830.6712007811 569514.8245909538],[360870.71331659873 568492.884960581],360830.6712007811,569514.8245909538,360870.71331659873,568492.884960581
3323BB5D2D81F6BA,electric_bike,2023-04-14T19:39:41,2023-04-14T19:43:38,Dayton St & North Ave,13058,,,41.910632253,-87.64944756,41.91,-87.65,casual,19,[356738.3968576973 582402.7573003891],[356693.1230485735 582332.1678967298],356738.3968576973,582402.7573003891,356693.1230485735,582332.1678967298
3911E38C87A7893C,electric_bike,2023-04-25T17:25:03,2023-04-25T17:30:08,N Sheffield Ave & W Wellington Ave,20256.0,,,41.94,-87.65,41.95,-87.66,member,17,[356666.569224948 585664.2652857535],[355828.5730308031 586768.4058960413],356666.569224948,585664.2652857535,355828.5730308031,586768.4058960413
025CA75D59E2493E,electric_bike,2023-04-15T06:08:46,2023-04-15T06:09:02,Campbell Ave & Irving Park Rd,439,Campbell Ave & Irving Park Rd,439,41.95,-87.69,41.95,-87.69,casual,6,[353341.14977737184 586749.2993688874],[353341.14977737184 586749.2993688874],353341.14977737184,586749.2993688874,353341.14977737184,586749.2993688874
559AC86A8861F782,electric_bike,2023-04-09T10:32:49,2023-04-09T10:34:18,,,,,41.9,-87.64,41.9,-87.64,member,10,[357531.76021526963 581228.1304233946],[357531.76021526963 581228.1304233946],357531.76021526963,581228.1304233946,357531.76021526963,581228.1304233946
E7BBE6613EF2D3A1,classic_bike,2023-04-24T10:23:34,2023-04-24T10:29:08,Elizabeth St & Randolph St,23001,Clinton St & Madison St,TA1305000032,41.88,-87.66,41.882751965685614,-87.64119029045105,member,10,[355889.6131636725 578993.5271417021],[357448.44452578016 579311.6059139348],355889.6131636725,578993.5271417021,357448.44452578016,579311.6059139348
F7D6A41ED627F7AB,electric_bike,2023-04-05T07:34:38,2023-04-05T07:37:38,Racine Ave & Belmont Ave,TA1308000019,Lincoln Ave & Diversey Pkwy,TA1307000064,41.93967466666667,-87.65888533333333,41.932225,-87.658617,casual,7,[355930.01854951546 585622.2950216578],[355958.78290961613 584795.0349015957],355930.01854951546,585622.2950216578,355958.78290961613,584795.0349015957
04455AFBE1C720AF,electric_bike,2023-04-30T10:25:22,2023-04-30T10:32:13,Lincoln Ave & Fullerton Ave,TA1309000058,Wells St & Evergreen Ave,TA1308000049,41.924199581,-87.646358967,41.906724,-87.63483,casual,10,[356982.5714644713 583911.7251385939],[357954.6802354894 581978.4420277649],356982.5714644713,583911.7251385939,357954.6802354894,581978.4420277649
4B68DA116FA6DD07,electric_bike,2023-04-20T13:00:30,2023-04-20T13:15:05,,,Harper Ave & 59th St,KA1503000070,41.77,-87.57,41.78794281287,-87.5883151702,member,13,[363468.60385771 566838.5504307165],[361928.4831221478 568818.0563556893],363468.60385771,566838.5504307165,361928.4831221478,568818.0563556893
89ACE1F8B36A99DD,classic_bike,2023-04-28T18:52:05,2023-04-28T19:23:52,Damen Ave & Chicago Ave,13132,Halsted St & 35th St,TA1308000043,41.895769,-87.67722,41.830661,-87.647172,member,18,[354446.8790271852 580733.9056856382],[356998.1910059363 573521.9475841058],354446.8790271852,580733.9056856382,356998.1910059363,573521.9475841058
6F67CE5A7A3CFB1D,electric_bike,2023-04-25T19:02:57,2023-04-25T19:18:32,Damen Ave & Thomas St (Augusta Blvd),TA1307000070,,,41.901338577,-87.677629948,41.93,-87.65,member,19,[354408.13177724864 581352.2548423483],[356675.422234935 584553.5642423917],354408.13177724864,581352.2548423483,356675.422234935,584553.5642423917
D6A10673D6D20EC4,classic_bike,2023-04-14T15:34:37,2023-04-14T16:08:16,Indiana Ave & Roosevelt Rd,SL-005,DuSable Lake Shore Dr & North Blvd,LF-005,41.867888,-87.623041,41.911722,-87.626804,member,15,[358968.52135140926 577672.9884971633],[358616.02687705844 582539.022073659],358968.52135140926,577672.9884971633,358616.02687705844,582539.022073659
36FF804CD03E1F88,electric_bike,2023-04-20T19:19:14,2023-04-20T19:21:51,,,Western Ave & Berteau Ave,438,41.95,-87.69,41.96,-87.69,member,19,[353341.14977737184 586749.2993688874],[353332.8117780456 587860.0032695578],353341.14977737184,586749.2993688874,353332.8117780456,587860.0032695578
49CFB69A27DB71F1,electric_bike,2023-04-27T12:49:37,2023-04-27T12:53:05,Ada St & Washington Blvd,13353,Green St & Washington Blvd,13053,41.882843137,-87.661193848,41.88318130597391,-87.64872461557388,casual,12,[355788.04485721904 579308.5348979433],[356822.7055875703 579354.2761572964],355788.04485721904,579308.5348979433,356822.7055875703,579354.2761572964
8EB2B93704069ACB,classic_bike,2023-04-01T18:09:56,2023-04-01T18:13:54,Ellis Ave & 55th St,KA1504000076,Ellis Ave & 53rd St,KA1503000052,41.79430062054,-87.6014497734,41.79933626261,-87.6009581145,member,18,[360830.6712007811 569514.8245909538],[360866.7707040134 570074.4692641357],360830.6712007811,569514.8245909538,360866.7707040134,570074.4692641357
62E521B99442AC87,classic_bike,2023-04-24T13:00:52,2023-04-24T13:07:47,Ellis Ave & 53rd St,KA1503000052,Ellis Ave & 55th St,KA1504000076,41.79933626261,-87.6009581145,41.79430062054,-87.6014497734,member,13,[360866.7707040134 570074.4692641357],[360830.6712007811 569514.8245909538],360866.7707040134,570074.4692641357,360830.6712007811,569514.8245909538
896B959B0EDE1086,classic_bike,2023-04-13T08:14:56,2023-04-13T08:49:47,Ravenswood Ave & Lawrence Ave,TA1309000066,Damen Ave & Foster Ave,KA1504000149,41.96909,-87.674237,41.97561480459,-87.6794590387,member,8,[354631.8159293238 588879.5661362328],[354193.43308191886 589600.9643238697],354631.8159293238,588879.5661362328,354193.43308191886,589600.9643238697
3F3DFFAF5DF7F4C4,electric_bike,2023-04-06T08:18:47,2023-04-06T08:18:50,Desplaines St & Kinzie St,TA1306000003,Desplaines St & Kinzie St,TA1306000003,41.888605952,-87.644408822,41.888716036,-87.6444478533,member,8,[357176.08242351847 579959.6537924946],[357172.7449117963 579971.8547309989],357176.08242351847,579959.6537924946,357172.7449117963,579971.8547309989
101FDBB1224EB13B,classic_bike,2023-04-02T15:20:50,2023-04-02T15:23:48,Wolcott Ave & Polk St,TA1309000064,Hermitage Ave & Polk St,13080,41.871262,-87.673688,41.871514,-87.669886,member,15,[354760.9025244183 578014.18369891],[355076.3133495195 578044.6055640375],354760.9025244183,578014.18369891,355076.3133495195,578044.6055640375
75B79A31A3D1DAFC,electric_bike,2023-04-13T09:50:06,2023-04-13T10:00:53,900 W Harrison St,13028,Columbus Dr & Randolph St,13263,41.874768376,-87.649770737,41.884728,-87.619521,member,9,[356743.3190645216 578419.1680151897],[359245.19809174014 579545.8155058671],356743.3190645216,578419.1680151897,359245.19809174014,579545.8155058671
A1947D32EF506FD0,electric_bike,2023-04-28T19:36:10,2023-04-28T19:58:17,Michigan Ave & Pearson St,13034,900 W Harrison St,13028,41.897480011,-87.62338376,41.874754,-87.649807,member,19,[358912.8747723795 580959.5132768186],[356740.3215308974 578417.5473149735],358912.8747723795,580959.5132768186,356740.3215308974,578417.5473149735
B2A165ECBAE690FC,electric_bike,2023-04-26T18:23:03,2023-04-26T18:30:32,,,Halsted St & Fulton St,23003,41.89,-87.63,41.89,-87.65,member,18,[358370.6547779136 580124.1910816967],[356710.8169186776 580110.7792053003],358370.6547779136,580124.1910816967,356710.8169186776,580110.7792053003
D62D7FE8EA3D64D0,docked_bike,2023-04-15T18:21:23,2023-04-15T18:28:31,Michigan Ave & Oak St,13042,Mies van der Rohe Way & Chicago Ave,13338,41.90096,-87.623777,41.896945,-87.621758,casual,18,[358877.04600094917 581345.7639140896],[359048.276841869 580901.2075631561],358877.04600094917,581345.7639140896,359048.276841869,580901.2075631561
F5982F95BDF0541C,classic_bike,2023-04-11T17:47:38,2023-04-11T18:19:30,Southport Ave & Irving Park Rd,TA1309000043,Lakefront Trail & Wilson Ave,639,41.954177,-87.664358,41.965845,-87.645361,member,17,[355463.6118379721 587229.5173388182],[357028.2240820025 588537.9583067807],355463.6118379721,587229.5173388182,357028.2240820025,588537.9583067807
319FC6C53B20A7FC,electric_bike,2023-04-19T17:41:08,2023-04-19T17:49:21,Franklin St & Lake St,TA1307000111,,,41.88574791,-87.635756135,41.9,-87.64,member,17,[357896.7814636033 579648.0149966031],[357531.76021526963 581228.1304233946],357896.7814636033,579648.0149966031,357531.76021526963,581228.1304233946
AACEE7776247603D,classic_bike,2023-04-26T19:40:46,2023-04-26T19:47:59,Clark St & Leland Ave,TA1309000014,Lincoln Ave & Sunnyside Ave,TA1307000156,41.96708783918421,-87.66729086637497,41.963004,-87.684781,member,19,[355209.3053439314 588661.6374149703],[353762.9473679133 588196.9205893676],355209.3053439314,588661.6374149703,353762.9473679133,588196.9205893676
7B79CB60AEAE8D95,electric_bike,2023-04-02T19:00:13,2023-04-02T19:09:19,Sedgwick St & North Ave,TA1307000038,Franklin St & Chicago Ave,13017,41.911314487,-87.638705492,41.896746973093805,-87.63566762208939,casual,19,[357629.00067627226 582485.6945818767],[357894.1945931466 580869.733001782],357629.00067627226,582485.6945818767,357894.1945931466,580869.733001782
B65CAFB670A07A49,electric_bike,2023-04-28T18:14:21,2023-04-28T18:14:39,,,,,41.92,-87.65,41.92,-87.65,member,18,[356684.2735095646 583442.8651127425],[356684.2735095646 583442.8651127425],356684.2735095646,583442.8651127425,356684.2735095646,583442.8651127425
A04EC96FAE5D0E5A,electric_bike,2023-04-18T07:02:13,2023-04-18T07:03:03,,,Sedgwick St & Schiller St,TA1307000143,41.91,-87.64,41.907626,-87.638566,member,7,[357522.7829174034 582338.825981623],[357643.89193698944 582076.1093743693],357522.7829174034,582338.825981623,357643.89193698944,582076.1093743693
1D3629920878E3B5,electric_bike,2023-04-14T17:14:16,2023-04-14T17:15:27,,,,,41.87,-87.62,41.87,-87.62,casual,17,[359219.03751612315 577909.659510294],[359219.03751612315 577909.659510294],359219.03751612315,577909.659510294,359219.03751612315,577909.659510294
CA3E0E6872825598,electric_bike,2023-04-03T22:51:03,2023-04-03T22:55:11,,,,,41.94,-87.65,41.95,-87.66,casual,22,[356666.569224948 585664.2652857535],[355828.5730308031 586768.4058960413],356666.569224948,585664.2652857535,355828.5730308031,586768.4058960413
8740C06ACCCE888F,classic_bike,2023-04-02T14:33:21,2023-04-02T14:47:35,Sheridan Rd & Montrose Ave,TA1307000107,Southport Ave & Roscoe St,13071,41.96167,-87.65464,41.943739,-87.66402,member,14,[356262.7273328344 588068.1039187212],[355500.68861715175 586070.3839698771],356262.7273328344,588068.1039187212,355500.68861715175,586070.3839698771
F0CCBBCAA320DE0C,electric_bike,2023-04-07T18:40:10,2023-04-07T18:55:49,Michigan Ave & Oak St,13042,Sedgwick St & North Ave,TA1307000038,41.9008575,-87.62380183333333,41.911386,-87.638677,casual,18,[358875.07954698446 581334.3622451006],[357631.30016512854 582493.6566521506],358875.07954698446,581334.3622451006,357631.30016512854,582493.6566521506
A99E700EC92753E2,classic_bike,2023-04-12T16:48:04,2023-04-12T16:53:52,LaSalle St & Illinois St,13430,Wells St & Elm St,KA1504000135,41.890762,-87.631697,41.903222,-87.634324,member,16,[358229.12544086686 580207.6728664428],[357999.83276997413 581589.818390498],358229.12544086686,580207.6728664428,357999.83276997413,581589.818390498
306DAD7064FDD3FA,classic_bike,2023-04-08T10:49:45,2023-04-08T10:55:02,MLK Jr Dr & 29th St,TA1307000139,McCormick Place,TA1305000004,41.842052,-87.617,41.8513751729,-87.6188346489,member,10,[359493.98821955855 574807.5860444164],[359332.9979734873 575841.8275928776],359493.98821955855,574807.5860444164,359332.9979734873,575841.8275928776
32CF1FA9E9D02076,electric_bike,2023-04-12T08:09:04,2023-04-12T08:13:01,,,Sheffield Ave & Fullerton Ave,TA1306000016,41.93,-87.64,41.9256018819,-87.6537080423,member,8,[357504.8230380886 584560.2228363999],[356371.74893771845 584062.6210061855],357504.8230380886,584560.2228363999,356371.74893771845,584062.6210061855
525EC07DB41DE8E5,classic_bike,2023-04-14T08:50:51,2023-04-14T08:53:56,Morgan St & Polk St,TA1307000130,May St & Taylor St,13160,41.871737,-87.65103,41.8694821,-87.6554864,member,8,[356641.46203279786 578081.6446200123],[356273.48946778406 577828.2643770417],356641.46203279786,578081.6446200123,356273.48946778406,577828.2643770417
F484360E6E073461,classic_bike,2023-04-09T12:55:41,2023-04-09T12:57:28,Sedgwick St & Schiller St,TA1307000143,Sedgwick St & Schiller St,TA1307000143,41.907626,-87.638566,41.907626,-87.638566,member,12,[357643.89193698944 582076.1093743693],[357643.89193698944 582076.1093743693],357643.89193698944,582076.1093743693,357643.89193698944,582076.1093743693
DCA2B2BDC95DE7F3,electric_bike,2023-04-18T08:51:47,2023-04-18T08:54:17,Western Ave & Leland Ave,TA1307000140,Damen Ave & Sunnyside Ave,TA1309000012,41.966475248,-87.6887151,41.96325,-87.679258,member,8,[353433.9207097325 588580.0131468747],[354220.58024888096 588227.7241230807],353433.9207097325,588580.0131468747,354220.58024888096,588227.7241230807
072EFD47A400151F,classic_bike,2023-04-09T17:40:39,2023-04-09T19:05:41,Chicago Ave & Sheridan Rd,E008,Chicago Ave & Sheridan Rd,E008,42.050491,-87.677821,42.050491,-87.677821,casual,17,[354265.5091101247 597918.615592683],[354265.5091101247 597918.615592683],354265.5091101247,597918.615592683,354265.5091101247,597918.615592683
A916DF98178D1FF5,classic_bike,2023-04-19T13:44:20,2023-04-19T13:53:46,Halsted St & Polk St,TA1307000121,Jefferson St & Monroe St,WL-011,41.87184,-87.64664,41.880329633634624,-87.64274597167967,member,13,[357005.80861983274 578095.9909006249],[357321.4859946447 579041.5194337061],357005.80861983274,578095.9909006249,357321.4859946447,579041.5194337061
9F6E9A09CA87C4B6,classic_bike,2023-04-28T08:24:09,2023-04-28T08:26:54,California Ave & Francis Pl,13259,Stave St & Armitage Ave,13266,41.91849115368695,-87.69742280244827,41.917741,-87.691392,member,8,[352751.6533351397 583245.0195181896],[353252.56161472964 583165.4274243611],352751.6533351397,583245.0195181896,353252.56161472964,583165.4274243611
3C89F0C264A52099,electric_bike,2023-04-07T19:48:18,2023-04-07T20:12:52,State St & Kinzie St,13050,Eckhart Park,13289,41.889179945,-87.627056479,41.89637337,-87.66098386,member,19,[358615.69292958884 580035.1147217469],[355793.69881621696 580811.4636896037],358615.69292958884,580035.1147217469,355793.69881621696,580811.4636896037
FF65998F4C9D4930,electric_bike,2023-04-29T13:10:17,2023-04-29T13:13:53,,,,,41.98,-87.67,41.98,-87.66,member,13,[354973.6349995003 590094.0591840113],[355802.3873269696 590100.5255092102],354973.6349995003,590094.0591840113,355802.3873269696,590100.5255092102
AA0001A2D79F6842,classic_bike,2023-04-27T20:00:51,2023-04-27T20:08:35,Clinton St & Washington Blvd,WL-012,Wells St & Hubbard St,TA1307000151,41.88338,-87.64117,41.889906,-87.634266,member,20,[357449.56604773784 579381.3747240091],[358016.6963568994 580110.8573522002],357449.56604773784,579381.3747240091,358016.6963568994,580110.8573522002
8AEBB1DD6AF1F463,electric_bike,2023-04-21T01:34:12,2023-04-21T01:39:22,Halsted St & Roscoe St,TA1309000025,Southport Ave & Waveland Ave,13235,41.94369616666667,-87.64889183333334,41.94815,-87.66394,casual,1,[356755.18832225754 586075.5325423552],[355503.496185149 586560.3667739492],356755.18832225754,586075.5325423552,355503.496185149,586560.3667739492
EECEEE0FF8F1EB93,electric_bike,2023-04-27T17:04:01,2023-04-27T17:10:04,,,,,41.87,-87.67,41.87,-87.66,member,17,[355068.1490253076 577876.374223247],[355898.3263396817 577882.8378339113],355068.1490253076,577876.374223247,355898.3263396817,577882.8378339113
0A86A9EC7F777C18,electric_bike,2023-04-08T16:40:43,2023-04-08T17:21:16,Shedd Aquarium,15544,Damen Ave & Cortland St,13133,41.867349267,-87.615301609,41.915983,-87.677335,casual,16,[359611.55037508975 577618.4974749394],[354420.1660985196 582978.9911611034],359611.55037508975,577618.4974749394,354420.1660985196,582978.9911611034
4282F5C4573B4E86,electric_bike,2023-04-30T11:59:32,2023-04-30T12:06,Wilton Ave & Diversey Pkwy,TA1306000014,Larrabee St & Webster Ave,13193,41.932539166666665,-87.65266466666667,41.921822,-87.64414,casual,11,[356452.1756031648 584833.8315818144],[357168.7518675375 583649.1244308123],356452.1756031648,584833.8315818144,357168.7518675375,583649.1244308123
41BA077A8E12F348,electric_bike,2023-04-11T21:53:41,2023-04-11T22:03:29,,,Kimbark Ave & 53rd St,TA1309000037,41.78,-87.61,41.799568,-87.594747,casual,21,[360133.3754806377 567920.4771196193],[361382.7505854174 570104.6245893525],360133.3754806377,567920.4771196193,361382.7505854174,570104.6245893525
972008FFD253976A,classic_bike,2023-04-18T20:48:02,2023-04-18T20:53:30,Canal St & Adams St,13011,Desplaines St & Randolph St,15535,41.879255,-87.639904,41.88461618962,-87.6445705849,member,20,[357558.3465587238 578924.0629660975],[357166.2139541766 579516.40633337],357558.3465587238,578924.0629660975,357166.2139541766,579516.40633337
D10DBF7DAD8C30BB,electric_bike,2023-04-03T16:48:25,2023-04-03T16:56:45,Stetson Ave & South Water St,TA1308000029,Canal St & Adams St,13011,41.886247166666664,-87.62215433333333,41.879255,-87.639904,casual,16,[359025.2363306241 579712.7335052561],[357558.3465587238 578924.0629660975],359025.2363306241,579712.7335052561,357558.3465587238,578924.0629660975
8F9562DFBF11ED79,electric_bike,2023-04-20T15:35:38,2023-04-20T15:45:28,,,,,41.92,-87.69,41.92,-87.69,casual,15,[353366.15397459886 583417.1991685269],[353366.15397459886 583417.1991685269],353366.15397459886,583417.1991685269,353366.15397459886,583417.1991685269
EBCF016E95312D41,docked_bike,2023-04-22T11:16:17,2023-04-22T11:31:56,Buckingham Fountain,15541,Shedd Aquarium,15544,41.876423,-87.620339,41.867226,-87.615355,casual,11,[359184.9685260084 578622.821879522],[359607.2322967045 577604.7692702317],359184.9685260084,578622.821879522,359607.2322967045,577604.7692702317
1EE922FF9B734DE1,electric_bike,2023-04-20T08:49:33,2023-04-20T09:03:18,Damen Ave & Chicago Ave,13132,Desplaines St & Jackson Blvd,15539,41.895527333333334,-87.67707033333333,41.87811890091227,-87.64394760131836,casual,8,[354459.5043316433 580707.1589320985],[357223.7177836873 578795.1735593819],354459.5043316433,580707.1589320985,357223.7177836873,578795.1735593819
D0AFF7BC9748FA88,electric_bike,2023-04-26T19:32:10,2023-04-26T19:37:26,State St & 33rd St,13216,MLK Jr Dr & 29th St,TA1307000139,41.834730387,-87.625815988,41.842052,-87.617,member,19,[358768.48393311945 573988.3174262429],[359493.98821955855 574807.5860444164],358768.48393311945,573988.3174262429,359493.98821955855,574807.5860444164
24509244D1C6C87B,classic_bike,2023-04-12T16:01:26,2023-04-12T16:26:06,Wells St & Hubbard St,TA1307000151,Halsted St & Clybourn Ave,331,41.889906,-87.634266,41.909668,-87.648128,member,16,[358016.6963568994 580110.8573522002],[356848.7299413431 582296.5318142163],358016.6963568994,580110.8573522002,356848.7299413431,582296.5318142163
A30EAE93818E67ED,electric_bike,2023-04-03T16:40:48,2023-04-03T16:46:37,Broadway & Waveland Ave,13325,,,41.94903583333333,-87.64862516666666,41.93,-87.65,member,16,[356772.56316325313 586668.7876581036],[356675.422234935 584553.5642423917],356772.56316325313,586668.7876581036,356675.422234935,584553.5642423917
C50E925FE93194A3,classic_bike,2023-04-23T15:57:13,2023-04-23T16:03:08,Clark St & Jarvis Ave,517,Eastlake Ter & Howard St,523,42.015963,-87.675005,42.01920250193227,-87.66430288553238,member,15,[354528.1337639425 594085.3144616577],[355411.7621583784 594452.0043492871],354528.1337639425,594085.3144616577,355411.7621583784,594452.0043492871
5F55AAE861EC387B,electric_bike,2023-04-30T03:19:30,2023-04-30T03:47:17,Lakeview Ave & Fullerton Pkwy,TA1309000019,Kingsbury St & Kinzie St,KA1503000043,41.92593816666667,-87.638724,41.88917683258,-87.6385057718,casual,3,[357614.3093806996 584109.9316109879],[357665.4849312493 580027.0112776379],357614.3093806996,584109.9316109879,357665.4849312493,580027.0112776379
3D40B0930805E0A7,electric_bike,2023-04-13T17:01:46,2023-04-13T17:21:43,,,Michigan Ave & 14th St,TA1307000124,41.89,-87.63,41.864059,-87.623727,casual,17,[358370.6547779136 580124.1910816967],[358915.08465802704 577247.2348484303],358370.6547779136,580124.1910816967,358915.08465802704,577247.2348484303
0850BFE69795083F,electric_bike,2023-04-05T22:39:10,2023-04-05T23:03:32,Dearborn St & Monroe St,TA1305000006,Aberdeen St & Jackson Blvd,13157,41.880927801,-87.629855633,41.87772613,-87.65478743,casual,22,[358390.89646345883 579116.6473361588],[356324.27826887136 578744.3783173433],358390.89646345883,579116.6473361588,356324.27826887136,578744.3783173433
AC50E2FD7A438C94,electric_bike,2023-04-15T14:59:53,2023-04-15T15:13:38,Princeton Ave & Garfield Blvd,KA1503000013,Museum of Science and Industry,KA1503000074,41.794973612,-87.633127093,41.79172820953,-87.583945009,casual,14,[358197.17938978487 569567.6417273264],[362288.08363264217 569241.6480016115],358197.17938978487,569567.6417273264,362288.08363264217,569241.6480016115
64ABFB18F79F75BB,electric_bike,2023-04-21T17:32:03,2023-04-21T17:42:23,Clinton St & Madison St,TA1305000032,Loomis St & Lexington St,13332,41.88274066666666,-87.641031,41.87222873224032,-87.66136385500431,member,17,[357461.675959981 579310.4575868299],[355783.16432828293 578129.4933284034],357461.675959981,579310.4575868299,355783.16432828293,578129.4933284034
8D48773F514186AE,electric_bike,2023-04-11T14:03:34,2023-04-11T14:09:54,Sheridan Rd & Montrose Ave,TA1307000107,Halsted St & Roscoe St,TA1309000025,41.961608052,-87.654585838,41.94367,-87.64895,casual,14,[356267.27181245416 588061.2588818575],[356750.38821188407 586072.5876913592],356267.27181245416,588061.2588818575,356750.38821188407,586072.5876913592
3A4CCAFDA62F777C,electric_bike,2023-04-23T07:20:06,2023-04-23T07:24:43,Wells St & Hubbard St,TA1307000151,Green St & Madison St,TA1307000120,41.890236497,-87.634433389,41.881859328038225,-87.64926373958588,member,7,[358002.50541295577 580147.4522527308],[356779.12831986346 579207.0884217673],358002.50541295577,580147.4522527308,356779.12831986346,579207.0884217673
3BCEC0395321C60A,classic_bike,2023-04-14T13:14:59,2023-04-14T13:22:33,Wood St & Webster Ave,TA1307000138,Western Ave & Winnebago Ave,13068,41.92105672992757,-87.67279744148254,41.91552,-87.687022,member,13,[354792.253199358 583545.418220299],[353616.9378524992 582921.46448768],354792.253199358,583545.418220299,353616.9378524992,582921.46448768
230EADE11466F1FF,electric_bike,2023-04-28T12:02:58,2023-04-28T12:11:44,,,,,41.79,-87.6,41.8,-87.59,member,12,[360955.2447109925 569038.192289479],[361776.8538757625 570156.0066280034],360955.2447109925,569038.192289479,361776.8538757625,570156.0066280034
F264998A30B6DFD8,classic_bike,2023-04-11T18:42:03,2023-04-11T18:50:10,Broadway & Belmont Ave,13277,Lincoln Ave & Diversey Pkwy,TA1307000064,41.940106,-87.645451,41.932225,-87.658617,member,18,[357043.7102090357 585679.055842635],[355958.78290961613 584795.0349015957],357043.7102090357,585679.055842635,355958.78290961613,584795.0349015957
C1851768651889B2,electric_bike,2023-04-20T20:41:56,2023-04-20T20:46:36,State St & Kinzie St,13050,Field Blvd & South Water St,15534,41.88862183333333,-87.62767183333334,41.88634906269,-87.6175165471,casual,20,[358565.1326225017 579972.7054878427],[359410.0632966077 579727.2515078001],358565.1326225017,579972.7054878427,359410.0632966077,579727.2515078001
08368FEBAED81C49,electric_bike,2023-04-07T12:00:14,2023-04-07T12:15:49,Harlem & Irving Park,326,,,41.95,-87.81,41.95,-87.75,member,12,[343391.471858859 586681.580753359],[348366.3079466065 586713.6985850398],343391.471858859,586681.580753359,348366.3079466065,586713.6985850398
09B923E356155946,electric_bike,2023-04-11T07:56:07,2023-04-11T08:27:28,DuSable Lake Shore Dr & Belmont Ave,TA1309000049,Wacker Dr & Washington St,KA1503000072,41.9407565,-87.63920533333334,41.88314336439022,-87.63724207878113,member,7,[357561.05950298655 585755.482071637],[357775.79852023156 579357.7287975136],357561.05950298655,585755.482071637,357775.79852023156,579357.7287975136
B2CA5FC3110AF8EA,classic_bike,2023-04-16T00:16:17,2023-04-16T00:22:07,Ellis Ave & 55th St,KA1504000076,Ellis Ave & 60th St,KA1503000014,41.79430062054,-87.6014497734,41.78509714636,-87.6010727606,member,0,[360830.6712007811 569514.8245909538],[360870.71331659873 568492.884960581],360830.6712007811,569514.8245909538,360870.71331659873,568492.884960581
0B3692462D78E70E,electric_bike,2023-04-05T15:45:40,2023-04-05T15:54:27,Western Ave & Monroe St,15667,Wolcott Ave & Polk St,TA1309000064,41.8797985,-87.68608083333334,41.871262,-87.673688,member,15,[353724.94825103524 578954.491292486],[354760.9025244183 578014.18369891],353724.94825103524,578954.491292486,354760.9025244183,578014.18369891
B3EF2222DBE791C4,electric_bike,2023-04-15T14:00:15,2023-04-15T14:11:59,Aberdeen St & Monroe St,13156,Halsted St & Maxwell St,TA1309000001,41.880457401,-87.655617356,41.864883,-87.647071,casual,14,[356252.99248942593 579047.1935982005],[356976.2063475773 577322.9988556539],356252.99248942593,579047.1935982005,356976.2063475773,577322.9988556539
ECABEB566A2226F5,classic_bike,2023-04-10T13:58:40,2023-04-10T14:13:46,Clark St & Grace St,TA1307000127,Ravenswood Ave & Lawrence Ave,TA1309000066,41.95078,-87.659172,41.96909,-87.674237,member,13,[355896.5444651642 586855.5804777951],[354631.8159293238 588879.5661362328],355896.5444651642,586855.5804777951,354631.8159293238,588879.5661362328
5BAF3EE4C44E802A,classic_bike,2023-04-10T19:01:03,2023-04-10T19:10:47,Clark St & Lincoln Ave,13179,Wilton Ave & Diversey Pkwy,TA1306000014,41.915689,-87.6346,41.932418,-87.652705,member,19,[357965.65156766505 582974.3372073476],[356448.9373255465 584820.3470374579],357965.65156766505,582974.3372073476,356448.9373255465,584820.3470374579
18003E8D5745D58D,electric_bike,2023-04-17T11:30:49,2023-04-17T11:37:08,Greenview Ave & Fullerton Ave,TA1307000001,Bissell St & Armitage Ave*,chargingstx1,41.925472617,-87.665871739,41.9182955629354,-87.65218332409859,member,11,[355362.93374614825 584040.3384349156],[356504.66382536065 583252.1127719817],355362.93374614825,584040.3384349156,356504.66382536065,583252.1127719817
F4F65BC57E759276,electric_bike,2023-04-27T09:26:42,2023-04-27T09:48:17,Cottage Grove Ave & Oakwood Blvd,TA1308000038,Museum of Science and Industry,KA1503000074,41.82299006,-87.607100606,41.79172820953,-87.583945009,casual,9,[360334.0714786756 572697.3143929625],[362288.08363264217 569241.6480016115],360334.0714786756,572697.3143929625,362288.08363264217,569241.6480016115
61FB5E6E303E54AC,classic_bike,2023-04-15T18:32:28,2023-04-15T18:48:15,State St & Randolph St,TA1305000029,Michigan Ave & 8th St,623,41.88462107257936,-87.62783423066139,41.872773,-87.623981,member,18,[358555.30797974014 579528.2332211189],[358885.9983482724 578214.9149483864],358555.30797974014,579528.2332211189,358885.9983482724,578214.9149483864
5863ADFECDBDE63F,electric_bike,2023-04-02T11:37:07,2023-04-02T11:43:23,Ashland Ave & Wellington Ave,13269,Clark St & Wellington Ave,TA1307000136,41.936102166666664,-87.66995216666666,41.9364968219,-87.6475386582,member,11,[355015.34418791294 585218.3357442117],[356873.79393969214 585276.7966830852],355015.34418791294,585218.3357442117,356873.79393969214,585276.7966830852
82DC77613EBE8AFB,classic_bike,2023-04-02T09:56:24,2023-04-02T10:12:25,Southport Ave & Belmont Ave,13229,Logan Blvd & Elston Ave,TA1308000031,41.93947775040509,-87.6637476682663,41.929465,-87.684158,member,9,[355526.96803747857 585597.2625079586],[353842.8062848313 584472.1270383336],355526.96803747857,585597.2625079586,353842.8062848313,584472.1270383336
9AAD160A624CECFC,electric_bike,2023-04-05T11:47:26,2023-04-05T11:56:34,Jefferson St & Monroe St,WL-011,Hermitage Ave & Polk St,13080,41.8804165,-87.64282466666667,41.871514,-87.669886,member,11,[357314.87633680075 579051.1150423923],[355076.3133495195 578044.6055640375],357314.87633680075,579051.1150423923,355076.3133495195,578044.6055640375
29C698D0490D42CA,electric_bike,2023-04-18T14:32:47,2023-04-18T14:33:35,,,,,41.83,-87.64,41.83,-87.64,member,14,[357594.5519620018 573453.3150661312],[357594.5519620018 573453.3150661312],357594.5519620018,573453.3150661312,357594.5519620018,573453.3150661312
81D7EFA13C5894FC,electric_bike,2023-04-04T20:27:15,2023-04-04T20:33:49,Lincoln Ave & Sunnyside Ave,TA1307000156,Broadway & Wilson Ave,13074,41.9629879,-87.684980989,41.965221,-87.658139,member,20,[353746.38236391963 588195.0068893263],[355969.55569081614 588460.2241585734],353746.38236391963,588195.0068893263,355969.55569081614,588460.2241585734
2F7341B880BED5EC,classic_bike,2023-04-13T17:58:58,2023-04-13T18:15:44,Delano Ct & Roosevelt Rd,KA1706005007,Desplaines St & Randolph St,15535,41.867491,-87.63219,41.88461618962,-87.6445705849,member,17,[358209.32661214535 577622.6498282078],[357166.2139541766 579516.40633337],358209.32661214535,577622.6498282078,357166.2139541766,579516.40633337
7B18D8BCD8B6A5CC,classic_bike,2023-04-29T15:35:11,2023-04-29T15:42:44,Sedgwick St & North Ave,TA1307000038,Halsted St & Wrightwood Ave,TA1309000061,41.911386,-87.638677,41.929143,-87.649077,member,15,[357631.30016512854 582493.6566521506],[356752.73556818004 584458.9877855224],357631.30016512854,582493.6566521506,356752.73556818004,584458.9877855224
ECA0F46CDFC0F570,electric_bike,2023-04-08T15:53:15,2023-04-08T16:14:13,,,Adler Planetarium,13431,41.89,-87.61,41.866095,-87.607267,casual,15,[360030.4934219661 580137.9898853336],[360279.77206268616 577484.798051307],360030.4934219661,580137.9898853336,360279.77206268616,577484.798051307
ED5F2FCF20554904,electric_bike,2023-04-02T02:41:56,2023-04-02T02:43:49,Wilton Ave & Diversey Pkwy,TA1306000014,,,41.932464719,-87.652772665,41.94,-87.66,member,2,[356443.28420750797 584825.4915698706],[355837.2981801996 585657.7031877534],356443.28420750797,584825.4915698706,355837.2981801996,585657.7031877534
97D0331E13792F99,classic_bike,2023-04-19T13:58:18,2023-04-19T14:58:33,Sedgwick St & Webster Ave,13191,State St & 29th St,13213,41.922167,-87.638888,41.841707,-87.626938,casual,13,[357604.0985290962 583690.9582373004],[358668.9130109194 574762.4310302663],357604.0985290962,583690.9582373004,358668.9130109194,574762.4310302663
82FDE8D186056AF6,classic_bike,2023-04-15T15:18:22,2023-04-15T15:35:04,Halsted St & Fulton St,23003,Wood St & Milwaukee Ave,13221,41.89,-87.65,41.907655,-87.672552,casual,15,[356710.8169186776 580110.7792053003],[354824.0812817063 582057.0495787177],356710.8169186776,580110.7792053003,354824.0812817063,582057.0495787177
D48C4F3AEA80CA69,classic_bike,2023-04-14T17:13:57,2023-04-14T17:17:26,Ellis Ave & 60th St,KA1503000014,University Ave & 57th St,KA1503000071,41.78509714636,-87.6010727606,41.791478,-87.599861,member,17,[360870.71331659873 568492.884960581],[360965.3980530323 569202.4485881036],360870.71331659873,568492.884960581,360965.3980530323,569202.4485881036
64B1F8EE570FB3E8,electric_bike,2023-04-12T22:35:55,2023-04-12T22:48:39,Montrose Harbor,TA1308000012,Montrose Harbor,TA1308000012,41.963970184,-87.638182998,41.963982,-87.638181,casual,22,[357624.92419538595 588334.5237781638],[357625.0791740191 588335.8375331601],357624.92419538595,588334.5237781638,357625.0791740191,588335.8375331601
890CB90E65930086,electric_bike,2023-04-20T22:18:10,2023-04-20T22:19:11,,,,,41.89,-87.62,41.89,-87.62,member,22,[359200.57400044356 580131.0421173663],[359200.57400044356 580131.0421173663],359200.57400044356,580131.0421173663,359200.57400044356,580131.0421173663
6174A80A1A2C4EE9,electric_bike,2023-04-24T06:23:57,2023-04-24T06:27:42,Aberdeen St & Monroe St,13156,Desplaines St & Jackson Blvd,15539,41.88051766666667,-87.65574683333334,41.87811890091227,-87.64394760131836,member,6,[356242.19247702626 579053.8023888703],[357223.7177836873 578795.1735593819],356242.19247702626,579053.8023888703,357223.7177836873,578795.1735593819
E520D9F1F35D5ADF,classic_bike,2023-04-24T08:32:01,2023-04-24T08:38:58,State St & Chicago Ave,21544,Ritchie Ct & Banks St,KA1504000134,41.89661720040753,-87.62857854366302,41.906866,-87.626217,member,8,[358482.58721691323 580860.1272561179],[358669.1730453025 582000.0690694803],358482.58721691323,580860.1272561179,358669.1730453025,582000.0690694803
8B53FA85F5FE1AE4,electric_bike,2023-04-13T21:34:26,2023-04-13T21:34:35,Greenview Ave & Jarvis Ave,520,Greenview Ave & Jarvis Ave,520,42.016034961,-87.668675184,42.015962,-87.66857,member,21,[355052.3612818066 594097.358998636],[355061.13644908427 594089.322758688],355052.3612818066,594097.358998636,355061.13644908427,594089.322758688
CA487E82FA07C0C4,classic_bike,2023-04-10T19:44:24,2023-04-10T19:51:18,Michigan Ave & Jackson Blvd,TA1309000002,Wabash Ave & Roosevelt Rd,TA1305000002,41.87785,-87.62408,41.867227,-87.625961,member,19,[358873.1202167864 578778.744499509],[358726.7063379414 577597.5702292662],358873.1202167864,578778.744499509,358726.7063379414,577597.5702292662
E4D510D08866DA1D,electric_bike,2023-04-30T00:59,2023-04-30T01:02:37,Halsted St & Polk St,TA1307000121,,,41.871781111,-87.646575451,41.88,-87.65,member,0,[357011.21951080725 578089.4930345009],[356719.66124924686 579000.087729726],357011.21951080725,578089.4930345009,356719.66124924686,579000.087729726
39A741934D0B65D8,docked_bike,2023-04-13T19:26:30,2023-04-13T19:48:07,Streeter Dr & Grand Ave,13022,DuSable Lake Shore Dr & North Blvd,LF-005,41.892278,-87.612043,41.911722,-87.626804,casual,19,[359858.81394717825 580389.578606188],[358616.02687705844 582539.022073659],359858.81394717825,580389.578606188,358616.02687705844,582539.022073659
117DDA1698CBE2C7,classic_bike,2023-04-17T13:57:06,2023-04-17T14:02:09,Southport Ave & Clark St,TA1308000047,Ravenswood Ave & Irving Park Rd,TA1307000149,41.957081,-87.664199,41.95469,-87.67393,member,13,[355474.27581844246 587552.1688819401],[354669.57129333477 587280.3458769952],355474.27581844246,587552.1688819401,354669.57129333477,587280.3458769952
389F82A23CBD7D99,classic_bike,2023-04-02T15:35:21,2023-04-02T16:09:37,Theater on the Lake,TA1308000001,Broadway & Berwyn Ave,13109,41.926277,-87.630834,41.978353,-87.659753,member,15,[358268.4399573025 584152.8973913747],[355824.29603346786 589917.7526371453],358268.4399573025,584152.8973913747,355824.29603346786,589917.7526371453
3CE320B712119BA7,classic_bike,2023-04-21T18:01:42,2023-04-21T18:07:19,Dearborn St & Erie St,13045,Mies van der Rohe Way & Chicago Ave,13338,41.893992,-87.629318,41.896944626370825,-87.62175768613815,casual,18,[358423.617233741 580568.0440338368],[359048.3032312365 580901.166280386],358423.617233741,580568.0440338368,359048.3032312365,580901.166280386
11BD5F41E7D8B473,electric_bike,2023-04-06T17:29:07,2023-04-06T17:41:05,Canal St & Jackson Blvd,13138,Eckhart Park,13289,41.876959,-87.63930116666667,41.89637337,-87.66098386,member,17,[357610.4473996941 578669.4529139632],[355793.69881621696 580811.4636896037],357610.4473996941,578669.4529139632,355793.69881621696,580811.4636896037
8DB33162E185089C,classic_bike,2023-04-18T12:28:05,2023-04-18T12:30:45,May St & Taylor St,13160,Halsted St & Roosevelt Rd,TA1305000017,41.8694821,-87.6554864,41.867324,-87.648625,member,12,[356273.48946778406 577828.2643770417],[356845.02400971076 577593.0875655813],356273.48946778406,577828.2643770417,356845.02400971076,577593.0875655813
F9C3235A64B9B77B,classic_bike,2023-04-12T20:00:57,2023-04-12T20:04,Wells St & Huron St,TA1306000012,State St & Chicago Ave,21544,41.894722,-87.634362,41.89661720040753,-87.62857854366302,member,20,[358004.37157944974 580645.702330011],[358482.58721691323 580860.1272561179],358004.37157944974,580645.702330011,358482.58721691323,580860.1272561179
896B7904A1E21119,classic_bike,2023-04-04T11:26:01,2023-04-04T11:33:36,Harper Ave & 59th St,KA1503000070,Ellis Ave & 55th St,KA1504000076,41.78794281287,-87.5883151702,41.79430062054,-87.6014497734,member,11,[361928.4831221478 568818.0563556893],[360830.6712007811 569514.8245909538],361928.4831221478,568818.0563556893,360830.6712007811,569514.8245909538
03E1987A1195E53E,electric_bike,2023-04-12T15:41:27,2023-04-12T15:55:36,Leavitt St & Chicago Ave,18058,Wells St & Evergreen Ave,TA1308000049,41.895421267,-87.681981921,41.906724,-87.63483,casual,15,[354052.00732094666 580692.2722641008],[357954.6802354894 581978.4420277649],354052.00732094666,580692.2722641008,357954.6802354894,581978.4420277649
08FCACB17EF0B00E,classic_bike,2023-04-06T07:30:20,2023-04-06T07:36:03,Western Ave & Leland Ave,TA1307000140,Ravenswood Ave & Lawrence Ave,TA1309000066,41.966399801840986,-87.68870428204536,41.96909,-87.674237,member,7,[353434.88048733235 588571.640042503],[354631.8159293238 588879.5661362328],353434.88048733235,588571.640042503,354631.8159293238,588879.5661362328
B5EEC17FD96D4B9D,classic_bike,2023-04-13T06:17:03,2023-04-13T06:43:23,Walsh Park,18067,Fairbanks St & Superior St,18003,41.91461,-87.667968,41.895748,-87.620104,member,6,[355198.41852674366 582832.4786902163],[359186.63585760066 580769.3971425595],355198.41852674366,582832.4786902163,359186.63585760066,580769.3971425595
9554D52D26F2351F,electric_bike,2023-04-27T16:44:21,2023-04-27T16:51:22,Sheridan Rd & Irving Park Rd,13063,Clarendon Ave & Leland Ave,TA1307000119,41.954208612,-87.654420376,41.967968,-87.650001,member,16,[356287.49973633536 587239.507812513],[356641.7170242026 588770.6834641236],356287.49973633536,587239.507812513,356641.7170242026,588770.6834641236
63094EFA77CB71A4,electric_bike,2023-04-07T10:56:13,2023-04-07T11:16:29,Elston Ave & George St,472,Franklin St & Adams St (Temp),TA1309000008,41.93,-87.69,41.87943409140013,-87.63550400733948,member,10,[353357.82087589626 584527.8973184489],[357923.40975928935 578946.9147395997],353357.82087589626,584527.8973184489,357923.40975928935,578946.9147395997
0CD2525214900401,electric_bike,2023-04-27T14:36:23,2023-04-27T14:42:15,,,,,41.93,-87.65,41.95,-87.65,member,14,[356675.422234935 584553.5642423917],[356657.71447986655 586774.9682429072],356675.422234935,584553.5642423917,356657.71447986655,586774.9682429072
B9D715B85A18B7C4,electric_bike,2023-04-02T13:12:44,2023-04-02T13:19:39,Clark St & Schiller St,TA1309000024,,,41.908078833333335,-87.63165666666667,41.9,-87.64,member,13,[358216.74153180583 582131.0717522107],[357531.76021526963 581228.1304233946],358216.74153180583,582131.0717522107,357531.76021526963,581228.1304233946
4F17CB3CA043CFA7,docked_bike,2023-04-14T17:13:16,2023-04-14T17:34:30,Streeter Dr & Grand Ave,13022,Wabash Ave & 9th St,TA1309000010,41.892278,-87.612043,41.870769,-87.625734,casual,17,[359858.81394717825 580389.578606188],[358742.3092944623 577991.1316088322],359858.81394717825,580389.578606188,358742.3092944623,577991.1316088322
7C4D250E4B0BCD3C,docked_bike,2023-04-27T08:37:57,2023-04-27T08:47:47,Larrabee St & Kingsbury St,TA1306000009,Clark St & Randolph St,TA1305000030,41.897764,-87.642884,41.884576,-87.63189,casual,8,[357294.44767635106 580977.8491306955],[358218.724604371 579520.4675568627],357294.44767635106,580977.8491306955,358218.724604371,579520.4675568627
3E07145632A6C57C,classic_bike,2023-04-27T18:01:23,2023-04-27T18:11:32,Clinton St & Roosevelt Rd,WL-008,Throop St & Taylor St,13139,41.8671177825,-87.6410879593,41.868968,-87.659141,member,18,[357470.9431189209 577575.2016740239],[355970.5388292518 577768.7745393086],357470.9431189209,577575.2016740239,355970.5388292518,577768.7745393086
EC4B3F20380A9ECB,classic_bike,2023-04-10T08:22:41,2023-04-10T08:29:18,Kingsbury St & Kinzie St,KA1503000043,Canal St & Adams St,13011,41.88917683258,-87.6385057718,41.879255,-87.639904,member,8,[357665.4849312493 580027.0112776379],[357558.3465587238 578924.0629660975],357665.4849312493,580027.0112776379,357558.3465587238,578924.0629660975
70888EF975524A00,classic_bike,2023-04-15T09:49:55,2023-04-15T09:52:58,Ellis Ave & 60th St,KA1503000014,University Ave & 57th St,KA1503000071,41.78509714636,-87.6010727606,41.791478,-87.599861,member,9,[360870.71331659873 568492.884960581],[360965.3980530323 569202.4485881036],360870.71331659873,568492.884960581,360965.3980530323,569202.4485881036
B67D833F68138A42,electric_bike,2023-04-15T14:55:16,2023-04-15T14:57:31,,,,,41.91,-87.67,41.91,-87.68,member,14,[355033.80387625325 582319.1419413319],[354204.1445672267 582312.7740698983],355033.80387625325,582319.1419413319,354204.1445672267,582312.7740698983
D38145FBB5943E3B,classic_bike,2023-04-10T17:47:05,2023-04-10T17:52:33,Wells St & Elm St,KA1504000135,Michigan Ave & Oak St,13042,41.903222,-87.634324,41.90096039,-87.62377664,member,17,[357999.83276997413 581589.818390498],[358877.075514654 581345.8074782765],357999.83276997413,581589.818390498,358877.075514654,581345.8074782765
DF2CE567AA59B0C4,classic_bike,2023-04-14T18:44:41,2023-04-14T18:56:16,Clark St & Elm St,TA1307000039,Clark St & Armitage Ave,13146,41.902973,-87.63128,41.918306,-87.636282,casual,18,[358252.63436210435 581564.2246616941],[357823.7526253516 583263.8713920149],358252.63436210435,581564.2246616941,357823.7526253516,583263.8713920149
DF5B50434475D143,classic_bike,2023-04-08T10:55:41,2023-04-08T11:06:14,Dearborn Pkwy & Delaware Pl,TA1307000128,Clark St & Ida B Wells Dr,TA1305000009,41.898969,-87.629912,41.8759326655,-87.6305845355,casual,10,[358369.79084682796 581120.4322267836],[358334.93770701165 578561.3465945524],358369.79084682796,581120.4322267836,358334.93770701165,578561.3465945524
55D151ECF9BBC853,classic_bike,2023-04-17T19:36:56,2023-04-17T19:43:35,Wells St & Concord Ln,TA1308000050,Clybourn Ave & Division St,TA1307000115,41.912133,-87.634656,41.904613,-87.640552,member,19,[357964.2233817566 582579.3353637431],[357481.81812600873 581740.1240055133],357964.2233817566,582579.3353637431,357481.81812600873,581740.1240055133
CC73F7628A83B108,electric_bike,2023-04-22T11:51:51,2023-04-22T11:57:04,Clark St & Wrightwood Ave,TA1305000014,Sheffield Ave & Fullerton Ave,TA1306000016,41.929567695,-87.64320159,41.9256018819,-87.6537080423,casual,11,[357239.6693743109 584510.0643731346],[356371.74893771845 584062.6210061855],357239.6693743109,584510.0643731346,356371.74893771845,584062.6210061855
C18B5E4314CFF883,classic_bike,2023-04-17T08:44:30,2023-04-17T08:59,Blue Island Ave & 18th St,13135,Clinton St & Jackson Blvd,638,41.857556,-87.661535,41.878316611830684,-87.64098107814789,member,8,[355781.7096805339 576499.700332342],[357469.7836186739 578819.1152909332],355781.7096805339,576499.700332342,357469.7836186739,578819.1152909332
92715FD36222B406,electric_bike,2023-04-21T18:43:20,2023-04-21T18:57:53,,,Kedzie Ave & Leland Ave,KA1504000126,41.93,-87.71,41.96668636205,-87.7080519806,member,18,[351699.0212700259 584515.6443213535],[351830.8631339113 588591.5830869155],351699.0212700259,584515.6443213535,351830.8631339113,588591.5830869155
7E3BF2CBF91B29E9,electric_bike,2023-04-18T15:55:46,2023-04-18T16:10:31,Honore St & Division St,TA1305000034,Lakeview Ave & Fullerton Pkwy,TA1309000019,41.903116941,-87.67383182,41.925858,-87.638973,casual,15,[354721.7711001272 581552.1925295499],[357593.7280916581 584100.8602243903],354721.7711001272,581552.1925295499,357593.7280916581,584100.8602243903
9E9B5A14B2B2416D,electric_bike,2023-04-26T17:33:04,2023-04-26T17:39:13,Franklin St & Lake St,TA1307000111,Franklin St & Chicago Ave,13017,41.885673881,-87.63555479,41.896746973093805,-87.63566762208939,member,17,[357913.5594351218 579639.9285195497],[357894.1945931466 580869.733001782],357913.5594351218,579639.9285195497,357894.1945931466,580869.733001782
81BD4C8A148B6EC0,electric_bike,2023-04-01T09:47:02,2023-04-01T09:54:15,,,Racine Ave & Washington Blvd,654,41.89,-87.68,41.883073,-87.656952,member,9,[354221.06155259727 580091.3868709339],[356139.9217738565 579336.8317932966],354221.06155259727,580091.3868709339,356139.9217738565,579336.8317932966
7BBAFCF9819DDAFF,electric_bike,2023-04-25T19:07:56,2023-04-25T19:09:07,Wells St & Evergreen Ave,TA1308000049,Wells St & Evergreen Ave,TA1308000049,41.906725645,-87.635126233,41.906724,-87.63483,casual,19,[357930.10022261593 581978.4246333371],[357954.6802354894 581978.4420277649],357930.10022261593,581978.4246333371,357954.6802354894,581978.4420277649
7A881AA682C2DC02,electric_bike,2023-04-28T07:26:48,2023-04-28T07:39:06,Aberdeen St & Monroe St,13156,,,41.880370975,-87.655545354,41.89,-87.62,member,7,[356259.04476975533 579037.6415419994],[359200.57400044356 580131.0421173663],356259.04476975533,579037.6415419994,359200.57400044356,580131.0421173663
FA5D35D91763A3F4,classic_bike,2023-04-13T17:08:47,2023-04-13T17:42:19,Canal St & Jackson Blvd,13138,Kedzie Ave & Palmer Ct,13292,41.877245,-87.639366,41.921525,-87.707322,casual,17,[357604.8088193195 578701.175138366],[351928.0067277078 583575.946096913],357604.8088193195,578701.175138366,351928.0067277078,583575.946096913
C7751412A2A18628,classic_bike,2023-04-26T13:03:35,2023-04-26T13:08:38,Wentworth Ave & 33rd St,15445,Calumet Ave & 33rd St,13217,41.83452988563,-87.6318229814,41.8349,-87.61793,casual,13,[358269.7043449438 573961.9557556986],[359423.36433152447 574012.581453576],358269.7043449438,573961.9557556986,359423.36433152447,574012.581453576
12A3192F8B5EFE05,electric_bike,2023-04-10T21:09:28,2023-04-10T21:12:23,,,,,41.9,-87.69,41.89,-87.68,member,21,[353382.81526964664 581195.8086188906],[354221.06155259727 580091.3868709339],353382.81526964664,581195.8086188906,354221.06155259727,580091.3868709339
23E7BB4D8AEA6286,electric_bike,2023-04-11T15:30:16,2023-04-11T15:50:29,Lakefront Trail & Bryn Mawr Ave,15576,,,41.983991,-87.6523305,41.93,-87.65,casual,15,[356434.4746206482 590548.8347755576],[356675.422234935 584553.5642423917],356434.4746206482,590548.8347755576,356675.422234935,584553.5642423917
337F4796DBB1F3DE,electric_bike,2023-04-11T17:36:10,2023-04-11T18:07:15,Millennium Park,13008,Broadway & Barry Ave,13137,41.8811205,-87.62409983333333,41.93758231600629,-87.6440978050232,member,17,[358868.47203728923 579141.9824177246],[357158.18027998914 585399.651142496],358868.47203728923,579141.9824177246,357158.18027998914,585399.651142496
EFF960DF2D8D6533,electric_bike,2023-04-20T22:44:27,2023-04-20T22:57:04,Wilton Ave & Belmont Ave,TA1307000134,Greenview Ave & Fullerton Ave,TA1307000001,41.940050166666666,-87.65297566666666,41.92533,-87.6658,casual,22,[356419.7615613965 585667.8745341875],[355369.00751864834 584024.5443028532],356419.7615613965,585667.8745341875,355369.00751864834,584024.5443028532
CA944BE1BC46157F,classic_bike,2023-04-05T17:50:11,2023-04-05T17:59:44,Sedgwick St & Webster Ave,13191,Dayton St & North Ave,13058,41.922167,-87.638888,41.9105780349,-87.6494219288,member,17,[357604.0985290962 583690.9582373004],[356740.5713712705 582396.7522711471],357604.0985290962,583690.9582373004,356740.5713712705,582396.7522711471
7E8648FDF558F457,classic_bike,2023-04-19T12:51:36,2023-04-19T12:54:41,University Ave & 57th St,KA1503000071,Ellis Ave & 60th St,KA1503000014,41.791478,-87.599861,41.78509714636,-87.6010727606,casual,12,[360965.3980530323 569202.4485881036],[360870.71331659873 568492.884960581],360965.3980530323,569202.4485881036,360870.71331659873,568492.884960581
5FB1BEF266FDC30E,electric_bike,2023-04-11T00:06:26,2023-04-11T00:18:10,Desplaines St & Randolph St,15535,Wabash Ave & Cermak Rd,TA1305000001,41.884624124,-87.644601822,41.852619,-87.626488,casual,0,[357163.614237875 579517.2667898485],[358696.31187342945 575974.717837168],357163.614237875,579517.2667898485,358696.31187342945,575974.717837168
9EEFF94FC0086E8C,electric_bike,2023-04-13T08:00:42,2023-04-13T08:14:55,,,,,41.91,-87.65,41.88,-87.63,member,8,[356693.1230485735 582332.1678967298],[358379.7579969846 579013.4990875969],356693.1230485735,582332.1678967298,358379.7579969846,579013.4990875969
7B386C5488B3F6B2,electric_bike,2023-04-20T07:59:08,2023-04-20T08:19:09,Keystone Ave & Fullerton Ave,16010,Wood St & Chicago Ave,637,41.924542785,-87.727886319,41.895634,-87.672069,casual,7,[350219.81081617135 583898.8824368825],[354874.4470261693 580722.1930129931],350219.81081617135,583898.8824368825,354874.4470261693,580722.1930129931
BDDF6A56DCFA4A39,electric_bike,2023-04-27T11:00:32,2023-04-27T11:07:34,,,Wabash Ave & Grand Ave,TA1307000117,41.88,-87.63,41.891466,-87.626761,casual,11,[358379.7579969846 579013.4990875969],[358638.12476311787 580289.227160039],358379.7579969846,579013.4990875969,358638.12476311787,580289.227160039
41EB741CF0E28142,electric_bike,2023-04-03T09:23:35,2023-04-03T09:45:55,Halsted St & Roosevelt Rd,TA1305000017,Larrabee St & Webster Ave,13193,41.8673865,-87.64861983333333,41.921822,-87.64414,casual,9,[356845.3975831757 577600.0327877662],[357168.7518675375 583649.1244308123],356845.3975831757,577600.0327877662,357168.7518675375,583649.1244308123
C9DF4C203EF34E4A,electric_bike,2023-04-25T08:15:08,2023-04-25T08:21:14,Wacker Dr & Washington St,KA1503000072,LaSalle St & Illinois St,13430,41.88301599,-87.637497663,41.890762,-87.631697,member,8,[357754.6995434529 579343.4093942578],[358229.12544086686 580207.6728664428],357754.6995434529,579343.4093942578,358229.12544086686,580207.6728664428
C71332B050C25A29,electric_bike,2023-04-22T17:46:42,2023-04-22T17:50:36,Franklin St & Chicago Ave,13017,,,41.89683466666666,-87.63573666666667,41.9,-87.63,casual,17,[357888.38585899805 580879.4264860451],[358361.54977161903 581234.8849875635],357888.38585899805,580879.4264860451,358361.54977161903,581234.8849875635
B9CE5245D4F6938B,electric_bike,2023-04-16T11:05:19,2023-04-16T11:13:53,DuSable Lake Shore Dr & North Blvd,LF-005,Bissell St & Armitage Ave*,chargingstx1,41.911746,-87.62687983333333,41.9182955629354,-87.65218332409859,member,11,[358609.7135000053 582541.6359240047],[356504.66382536065 583252.1127719817],358609.7135000053,582541.6359240047,356504.66382536065,583252.1127719817
40736D527DD2AE68,electric_bike,2023-04-14T01:45:28,2023-04-14T02:39:44,Field Museum,13029,900 W Harrison St,13028,41.8652935,-87.61799483333333,41.874754,-87.649807,member,1,[359389.8581677487 577388.2990163056],[356740.3215308974 578417.5473149735],359389.8581677487,577388.2990163056,356740.3215308974,578417.5473149735
B06C6CA0EDE8C571,classic_bike,2023-04-07T17:11:59,2023-04-07T17:26:42,Broadway & Granville Ave,15571,Lakefront Trail & Wilson Ave,639,41.9947796884,-87.6602845349,41.965845,-87.645361,member,17,[355765.90567673097 591741.9361616792],[357028.2240820025 588537.9583067807],355765.90567673097,591741.9361616792,357028.2240820025,588537.9583067807
6B8F74D985B53E34,electric_bike,2023-04-18T12:42:31,2023-04-18T12:54:44,,,Sheffield Ave & Fullerton Ave,TA1306000016,41.95,-87.68,41.9256018819,-87.6537080423,member,12,[354170.290682286 586755.5714594882],[356371.74893771845 584062.6210061855],354170.290682286,586755.5714594882,356371.74893771845,584062.6210061855
3D9FED191D4049AB,classic_bike,2023-04-25T18:16:07,2023-04-25T18:18:51,Mies van der Rohe Way & Chestnut St,15529,State St & Pearson St,TA1307000061,41.8985866514,-87.6219152258,41.897448,-87.628722,member,18,[359033.71779267397 581083.4367055147],[358469.924881325 580952.3059172201],359033.71779267397,581083.4367055147,358469.924881325,580952.3059172201
CDF08C32CD457613,classic_bike,2023-04-13T12:33:10,2023-04-13T12:40:54,Shore Dr & 55th St,TA1308000009,University Ave & 57th St,KA1503000071,41.795212,-87.580715,41.791478,-87.599861,member,12,[362553.17157958593 569630.9295149547],[360965.3980530323 569202.4485881036],362553.17157958593,569630.9295149547,360965.3980530323,569202.4485881036
067976B3A719A38D,classic_bike,2023-04-04T18:01:46,2023-04-04T18:04:53,University Ave & 57th St,KA1503000071,Ellis Ave & 60th St,KA1503000014,41.791478,-87.599861,41.78509714636,-87.6010727606,member,18,[360965.3980530323 569202.4485881036],[360870.71331659873 568492.884960581],360965.3980530323,569202.4485881036,360870.71331659873,568492.884960581
80A7BC93C1E8F7DB,classic_bike,2023-04-29T10:23:09,2023-04-29T10:30:38,Talman Ave & Addison St,15632,Seeley Ave & Roscoe St,13144,41.9466358306,-87.694614758,41.943403,-87.679618,member,10,[352961.3059310639 586372.7784370161],[354207.55231426295 586023.0824952115],352961.3059310639,586372.7784370161,354207.55231426295,586023.0824952115
6438D71FA6B2BBBB,electric_bike,2023-04-27T15:40:39,2023-04-27T15:45:37,Orleans St & Merchandise Mart Plaza,TA1305000022,New St & Illinois St,TA1306000013,41.88834666666666,-87.63734833333334,41.890847040623804,-87.61861681938171,casual,15,[357762.29205548257 579935.5838599906],[359314.5831901749 580226.0775918746],357762.29205548257,579935.5838599906,359314.5831901749,580226.0775918746
2F562BEAB9D5A2D2,electric_bike,2023-04-03T22:05:52,2023-04-03T23:02:10,Wells St & Huron St,TA1306000012,,,41.894732118,-87.634413123,41.89,-87.63,member,22,[358000.1199422938 580646.791568992],[358370.6547779136 580124.1910816967],358000.1199422938,580646.791568992,358370.6547779136,580124.1910816967
60795D7AF46C8F32,electric_bike,2023-04-12T12:18:30,2023-04-12T12:27:43,Lakefront Trail & Bryn Mawr Ave,15576,Lakefront Trail & Bryn Mawr Ave,15576,41.984013166666664,-87.65229,41.98404411519213,-87.65228122472763,casual,12,[356437.81128171145 590551.3235365187],[356438.51115546684 590554.7668037629],356437.81128171145,590551.3235365187,356438.51115546684,590554.7668037629
EEB663114A119296,classic_bike,2023-04-25T17:59:45,2023-04-25T18:01:46,Wabash Ave & Roosevelt Rd,TA1305000002,Wabash Ave & 9th St,TA1309000010,41.867227,-87.625961,41.870769,-87.625734,member,17,[358726.7063379414 577597.5702292662],[358742.3092944623 577991.1316088322],358726.7063379414,577597.5702292662,358742.3092944623,577991.1316088322
C032480B4D15192C,electric_bike,2023-04-25T12:10:06,2023-04-25T12:15:38,Albany Ave & Belmont Ave,434,Kimball Ave & Belmont Ave,KA150400009X,41.94,-87.71,41.93939395344302,-87.71206766366959,casual,12,[351690.94567268214 585626.3439218736],[351519.96835838276 585557.7855732942],351690.94567268214,585626.3439218736,351519.96835838276,585557.7855732942
7256BD14F0A33657,electric_bike,2023-04-29T10:29:20,2023-04-29T10:30:18,,,State St & Chicago Ave,21544,41.9,-87.63,41.89661720040753,-87.62857854366302,member,10,[358361.54977161903 581234.8849875635],[358482.58721691323 580860.1272561179],358361.54977161903,581234.8849875635,358482.58721691323,580860.1272561179
0CC559F2D5742173,classic_bike,2023-04-14T20:55:44,2023-04-14T21:09:50,Noble St & Milwaukee Ave,13290,Sangamon St & Lake St,TA1306000015,41.90068,-87.6626,41.88577925240433,-87.65102460980414,casual,20,[355655.8460222142 581288.7486585575],[356629.51021444093 579641.3074673854],355655.8460222142,581288.7486585575,356629.51021444093,579641.3074673854
E78EAC95AE68DD7D,electric_bike,2023-04-28T19:27:55,2023-04-28T19:30:09,,,Broadway & Cornelia Ave,13278,41.95,-87.66,41.945529,-87.646439,member,19,[355828.5730308031 586768.4058960413],[356956.951600234 586280.732887289],355828.5730308031,586768.4058960413,356956.951600234,586280.732887289
9CBC8E505023BFE1,electric_bike,2023-04-14T19:23:44,2023-04-14T19:40:38,California Ave & Milwaukee Ave,13084,Carpenter St & Huron St,13196,41.92265883333334,-87.6971735,41.894556,-87.653449,member,19,[352768.90025173547 583708.0758812485],[356420.5682479681 580614.5370739128],352768.90025173547,583708.0758812485,356420.5682479681,580614.5370739128
